step,time,base_z,roll,pitch,yaw,torque_norm,torque_max_abs,torque_saturation,FR_contact_cmd,FL_contact_cmd,RR_contact_cmd,RL_contact_cmd,FR_phase,FL_phase,RR_phase,RL_phase,FR_swing_phase,FL_swing_phase,RR_swing_phase,RL_swing_phase,n_contact,contact_pairs
0,0.002,0.28480584648330304,-1.2181847323743971e-05,0.0004242126275728479,-3.0238710475573553e-07,0.0,0.0,0,1,1,1,1,0.0,0.5,0.5,0.0,0.0,0.0,0.0,0.0,4,floor<->FR|floor<->FL|floor<->RR|floor<->RL
1,0.004,0.2848843983182138,8.971161359116671e-05,0.000341403964885978,-1.354665574343097e-05,19.15557883662364,8.302302663469831,0,1,1,1,1,0.002,0.502,0.502,0.002,0.0,0.0,0.0,0.0,4,floor<->FR|floor<->FL|floor<->RR|floor<->RL
2,0.006,0.2848733529718181,0.00017092781463197413,0.0006613098262259025,-2.6001666445633228e-05,9.03318201842595,4.3035347681947345,0,1,1,1,1,0.004,0.504,0.504,0.004,0.0,0.0,0.0,0.0,4,floor<->FR|floor<->FL|floor<->RR|floor<->RL
3,0.008,0.28489355815814943,-0.0015782551106954146,0.0006744572448812033,0.00018474950944613792,15.287812448692849,6.433635124451025,0,1,1,1,1,0.006,0.506,0.506,0.006,0.0,0.0,0.0,0.0,4,floor<->FR|floor<->FL|floor<->RR|floor<->RL
4,0.01,0.28473293996083365,-0.0011332520272061886,0.0009999969282950022,0.00013675469280118277,10.30058756937837,5.3076804896076615,0,1,1,1,1,0.008,0.508,0.508,0.008,0.0,0.0,0.0,0.0,4,floor<->FR|floor<->FL|floor<->RR|floor<->RL
5,0.012,0.28468579026869467,0.0008761521136508419,0.0006451755610943119,-0.0001560200109640143,12.91692635435155,5.219274541283036,0,1,1,1,1,0.01,0.51,0.51,0.01,0.0,0.0,0.0,0.0,4,floor<->FR|floor<->FL|floor<->RR|floor<->RL
6,0.014,0.28452218053564954,0.0006154338056598123,0.0008922017377861107,-0.0001932999483909062,13.02693452592352,5.341817035499438,0,1,1,1,1,0.012,0.512,0.512,0.012,0.0,0.0,0.0,0.0,4,floor<->FR|floor<->FL|floor<->RR|floor<->RL
7,0.016,0.28443196932679937,0.001882902006922853,0.0008567951778770016,-3.505644858011269e-05,11.050611486806588,4.125286311716445,0,1,1,1,1,0.014,0.514,0.514,0.014,0.0,0.0,0.0,0.0,4,floor<->FR|floor<->FL|floor<->RR|floor<->RL
8,0.018000000000000002,0.2842264230135582,0.0008973770566359981,0.0010950034072252088,-9.770953306855349e-05,14.091476378405906,6.033060005834674,0,1,1,1,1,0.016,0.516,0.516,0.016,0.0,0.0,0.0,0.0,4,floor<->FR|floor<->FL|floor<->RR|floor<->RL
9,0.020000000000000004,0.28409277755135764,0.0035357865112258836,0.0008553536407886736,-0.0002506376581963042,10.030153236597869,4.078206247979847,0,1,1,1,1,0.018000000000000002,0.518,0.518,0.018000000000000002,0.0,0.0,0.0,0.0,4,floor<->FR|floor<->FL|floor<->RR|floor<->RL
10,0.022000000000000006,0.28381130437808877,0.0017413602227400891,0.0010673425180165858,-0.00035828993189622596,16.928613873163666,6.555771511564485,0,1,1,1,1,0.020000000000000004,0.52,0.52,0.020000000000000004,0.0,0.0,0.0,0.0,4,floor<->FR|floor<->FL|floor<->RR|floor<->RL
11,0.024000000000000007,0.2836297091927252,0.004031416976870234,0.0006362069648178769,-0.000559788300427889,9.475476277110706,4.26025488120574,0,1,1,1,1,0.022000000000000006,0.522,0.522,0.022000000000000006,0.0,0.0,0.0,0.0,4,floor<->FR|floor<->FL|floor<->RR|floor<->RL
12,0.02600000000000001,0.2833174369043823,0.001875753280346031,0.0006643237352892437,-0.000717247408145479,16.38549664603436,6.888000637305901,0,1,1,1,1,0.024000000000000007,0.524,0.524,0.024000000000000007,0.0,0.0,0.0,0.0,4,floor<->FR|floor<->FL|floor<->RR|floor<->RL
13,0.02800000000000001,0.28310607243497354,0.003316968896097454,0.00021518535895063528,-0.0009665846645460029,11.71262721530117,7.189734701408192,0,1,1,1,1,0.02600000000000001,0.526,0.526,0.02600000000000001,0.0,0.0,0.0,0.0,4,floor<->FR|floor<->FL|floor<->RR|floor<->RL
14,0.030000000000000013,0.2827644293534023,0.0003466336829991446,0.00020081846745840596,-0.0011866153196600094,15.18107939138404,6.878109533325763,0,1,1,1,1,0.02800000000000001,0.528,0.528,0.02800000000000001,0.0,0.0,0.0,0.0,4,floor<->FR|floor<->FL|floor<->RR|floor<->RL
15,0.032000000000000015,0.282532529812843,-0.0006721800566022951,-0.00010181355822900027,-0.0016224690810884962,11.3931883959721,5.477720092802981,0,1,1,1,1,0.030000000000000013,0.53,0.53,0.030000000000000013,0.0,0.0,0.0,0.0,4,floor<->FR|floor<->FL|floor<->RR|floor<->RL
16,0.034000000000000016,0.2821205150228427,-0.003479049204331941,3.35817029424145e-07,-0.001728188574913145,13.712435313486807,6.88078785357476,0,1,1,1,1,0.032000000000000015,0.532,0.532,0.032000000000000015,0.0,0.0,0.0,0.0,4,floor<->FR|floor<->FL|floor<->RR|floor<->RL
17,0.03600000000000002,0.2818400067186553,-0.006155614133048809,-0.00041418556776266145,-0.0014408529848158314,9.681343853178506,4.595445482902251,0,1,1,1,1,0.034000000000000016,0.534,0.534,0.034000000000000016,0.0,0.0,0.0,0.0,4,floor<->FR|floor<->FL|floor<->RR|floor<->RL
18,0.03800000000000002,0.2814201566911642,-0.008517481868005931,-0.0004446965509822019,-0.0016316477946298296,14.54833664305795,7.478900179673542,0,1,1,1,1,0.03600000000000002,0.536,0.536,0.03600000000000002,0.0,0.0,0.0,0.0,4,floor<->FR|floor<->FL|floor<->RR|floor<->RL
19,0.04000000000000002,0.28110998169909557,-0.010287633785653649,-0.0009575222800110258,-0.0019819724546839067,8.75151399296175,4.8378994948543195,0,1,1,1,1,0.03800000000000002,0.538,0.538,0.03800000000000002,0.0,0.0,0.0,0.0,4,floor<->FR|floor<->FL|floor<->RR|floor<->RL
20,0.04200000000000002,0.2807560602019363,-0.012688039722596158,-0.0010241656902394492,-0.002328680813247488,10.783576072455533,6.677043231394195,0,1,1,1,1,0.04000000000000002,0.54,0.54,0.04000000000000002,0.0,0.0,0.0,0.0,4,floor<->FR|floor<->FL|floor<->RR|floor<->RL
21,0.044000000000000025,0.2804565376582731,-0.012541172834108228,-0.0016814967290844794,-0.002928431920847248,13.45586570131755,6.917411079821031,0,1,1,1,1,0.04200000000000002,0.542,0.542,0.04200000000000002,0.0,0.0,0.0,0.0,4,floor<->FR|floor<->FL|floor<->RR|floor<->RL
22,0.04600000000000003,0.28006612111191087,-0.016557982147533113,-0.0016973890813784087,-0.003446667278326574,12.669515358841423,6.6825694286482085,0,1,1,1,1,0.044000000000000025,0.544,0.544,0.044000000000000025,0.0,0.0,0.0,0.0,4,floor<->FR|floor<->FL|floor<->RR|floor<->RL
23,0.04800000000000003,0.2798282165061146,-0.016853874705899875,-0.0021992065195324067,-0.0039419504904070375,11.577781557517023,5.467101154940923,0,1,1,1,1,0.04600000000000003,0.546,0.546,0.04600000000000003,0.0,0.0,0.0,0.0,4,floor<->FR|floor<->FL|floor<->RR|floor<->RL
24,0.05000000000000003,0.27944996966465846,-0.021135309298620508,-0.002031292100920867,-0.004342561381955837,13.374945122711049,6.889389373597452,0,1,1,1,1,0.04800000000000003,0.548,0.548,0.04800000000000003,0.0,0.0,0.0,0.0,4,floor<->FR|floor<->FL|floor<->RR|floor<->RL
25,0.05200000000000003,0.2792409955359025,-0.021001843220029865,-0.002793531143972248,-0.004871443539533621,9.915309998126332,5.601853666436612,0,1,1,1,1,0.05000000000000003,0.55,0.55,0.05000000000000003,0.0,0.0,0.0,0.0,4,floor<->FR|floor<->FL|floor<->RR|floor<->RL
26,0.054000000000000034,0.27892445875805305,-0.025453414750157374,-0.002486551943915597,-0.005250528434515774,15.655099765997749,7.120092503911059,0,1,1,1,1,0.05200000000000003,0.552,0.552,0.05200000000000003,0.0,0.0,0.0,0.0,4,floor<->FR|floor<->FL|floor<->RR|floor<->RL
27,0.056000000000000036,0.27869130513893153,-0.025917583453408055,-0.0020099453229714638,-0.005076216211764683,12.323790298383647,6.624118139038984,0,1,1,1,1,0.054000000000000034,0.554,0.554,0.054000000000000034,0.0,0.0,0.0,0.0,4,floor<->FR|floor<->FL|floor<->RR|floor<->RL
28,0.05800000000000004,0.27847853195709515,-0.03030854040662539,-0.0016990019345593486,-0.004956902120768712,11.588695240929862,7.177672904256694,0,1,1,1,1,0.056000000000000036,0.556,0.556,0.056000000000000036,0.0,0.0,0.0,0.0,4,floor<->FR|floor<->FL|floor<->RR|floor<->RL
29,0.06000000000000004,0.2783988668323804,-0.029871764807196395,-0.002229413583993799,-0.004801473594898869,9.703991569441465,5.428527372604815,0,1,1,1,1,0.05800000000000004,0.558,0.558,0.05800000000000004,0.0,0.0,0.0,0.0,4,floor<->FR|floor<->FL|floor<->RR|floor<->RL
30,0.06200000000000004,0.2782644274057836,-0.03274385655822228,-0.0017401795114840102,-0.004645251680664111,12.43844381487298,7.5752443181591005,0,1,1,1,1,0.06000000000000004,0.56,0.56,0.06000000000000004,0.0,0.0,0.0,0.0,4,floor<->FR|floor<->FL|floor<->RR|floor<->RL
31,0.06400000000000004,0.2782865662738255,-0.03210466752440859,-0.0021424044508915672,-0.004458525398871028,9.70110115127169,5.623896411424529,0,1,1,1,1,0.06200000000000004,0.562,0.562,0.06200000000000004,0.0,0.0,0.0,0.0,4,floor<->FR|floor<->FL|floor<->RR|floor<->RL
32,0.06600000000000004,0.27820352310800767,-0.03469798719566104,-0.0015073051477449918,-0.004251476773334652,15.127795587794042,7.140652309229233,0,1,1,1,1,0.06400000000000004,0.5640000000000001,0.5640000000000001,0.06400000000000004,0.0,0.0,0.0,0.0,4,floor<->FR|floor<->FL|floor<->RR|floor<->RL
33,0.06800000000000005,0.27828616167485887,-0.03626240157417222,-0.0010133855448318442,-0.003721999840752075,9.540611336530407,5.869810745125028,0,1,1,1,1,0.06600000000000004,0.5660000000000001,0.5660000000000001,0.06600000000000004,0.0,0.0,0.0,0.0,4,floor<->FR|floor<->FL|floor<->RR|floor<->RL
34,0.07000000000000005,0.27842950323748966,-0.040328573716048685,-0.00047521901183329723,-0.003041802062576378,8.635569873691782,6.5736033690039966,0,1,1,1,1,0.06800000000000005,0.5680000000000001,0.5680000000000001,0.06800000000000005,0.0,0.0,0.0,0.0,4,floor<->FR|floor<->FL|floor<->RR|floor<->RL
35,0.07200000000000005,0.27854728286287156,-0.03954246118516188,-4.116415009504725e-05,-0.0025158820927945946,9.765190458865236,5.546873912811266,0,1,1,1,1,0.07000000000000005,0.5700000000000001,0.5700000000000001,0.07000000000000005,0.0,0.0,0.0,0.0,4,floor<->FR|floor<->FL|floor<->RR|floor<->RL
36,0.07400000000000005,0.2787615728811921,-0.04204687925343507,7.937018963874411e-05,-0.0018051879561863835,12.957068211591187,9.332052199045107,0,1,1,1,1,0.07200000000000005,0.5720000000000001,0.5720000000000001,0.07200000000000005,0.0,0.0,0.0,0.0,4,floor<->FR|floor<->FL|floor<->RR|floor<->RL
37,0.07600000000000005,0.278886732338004,-0.03979845571111549,0.0005397475566450193,-0.001209376246049671,11.223595313361336,6.053475401163,0,1,1,1,1,0.07400000000000005,0.5740000000000001,0.5740000000000001,0.07400000000000005,0.0,0.0,0.0,0.0,4,floor<->FR|floor<->FL|floor<->RR|floor<->RL
38,0.07800000000000006,0.27911298390049294,-0.04057240217902389,0.00034860543339543227,-0.0005728187581482823,11.821372051453316,7.521686553855606,0,1,1,1,1,0.07600000000000005,0.5760000000000001,0.5760000000000001,0.07600000000000005,0.0,0.0,0.0,0.0,4,floor<->FR|floor<->FL|floor<->RR|floor<->RL
39,0.08000000000000006,0.27932432572162,-0.03678687309331146,0.0005034880381357873,-6.765434678433138e-05,9.902277805928877,6.203166433216817,0,1,1,1,1,0.07800000000000006,0.5780000000000001,0.5780000000000001,0.07800000000000006,0.0,0.0,0.0,0.0,4,floor<->FR|floor<->FL|floor<->RR|floor<->RL
40,0.08200000000000006,0.2796297560992186,-0.03641765162664446,-0.00042095194302318816,0.0003779327234369276,12.36351278422739,6.259269010378977,0,1,1,1,1,0.08000000000000006,0.5800000000000001,0.5800000000000001,0.08000000000000006,0.0,0.0,0.0,0.0,4,floor<->FR|floor<->FL|floor<->RR|floor<->RL
41,0.08400000000000006,0.2798671944065771,-0.03213060859178462,-0.00031013662582174217,0.0008246652505342772,12.36363571206539,6.081614594501881,0,1,1,1,1,0.08200000000000006,0.5820000000000001,0.5820000000000001,0.08200000000000006,0.0,0.0,0.0,0.0,4,floor<->FR|floor<->FL|floor<->RR|floor<->RL
42,0.08600000000000006,0.2801682254566351,-0.02848988728007515,-0.0008401755190592308,0.000987938601340233,13.017029769129387,5.830409903954104,0,1,1,1,1,0.08400000000000006,0.5840000000000001,0.5840000000000001,0.08400000000000006,0.0,0.0,0.0,0.0,4,floor<->FR|floor<->FL|floor<->RR|floor<->RL
43,0.08800000000000006,0.28048155941573555,-0.02592779809250455,-0.0013115558967305722,0.000616487439329326,9.742082164401886,6.506132816922102,0,1,1,1,1,0.08600000000000006,0.5860000000000001,0.5860000000000001,0.08600000000000006,0.0,0.0,0.0,0.0,4,floor<->FR|floor<->FL|floor<->RR|floor<->RL
44,0.09000000000000007,0.28086327990933924,-0.021948752990951885,-0.002329204043401465,0.0006487053379264592,9.284889973049854,4.766283792124835,0,1,1,1,1,0.08800000000000006,0.5880000000000001,0.5880000000000001,0.08800000000000006,0.0,0.0,0.0,0.0,4,floor<->FR|floor<->FL|floor<->RR|floor<->RL
45,0.09200000000000007,0.2812114203398944,-0.020264779360536,-0.0025303067902288936,0.0006170024301041529,10.278266393194107,6.0736685441091876,0,1,1,1,1,0.09000000000000007,0.5900000000000001,0.5900000000000001,0.09000000000000007,0.0,0.0,0.0,0.0,4,floor<->FR|floor<->FL|floor<->RR|floor<->RL
46,0.09400000000000007,0.28159581157425084,-0.01397291409597763,-0.0036470765176867944,0.0004594022359819358,12.2624861126798,5.026724899027587,0,1,1,1,1,0.09200000000000007,0.5920000000000001,0.5920000000000001,0.09200000000000007,0.0,0.0,0.0,0.0,4,floor<->FR|floor<->FL|floor<->RR|floor<->RL
47,0.09600000000000007,0.281872583062801,-0.01213856063184302,-0.004404378890157821,0.0002667908449551637,13.596997667797472,6.346736428798145,0,1,1,1,1,0.09400000000000007,0.5940000000000001,0.5940000000000001,0.09400000000000007,0.0,0.0,0.0,0.0,4,floor<->FR|floor<->FL|floor<->RR|floor<->RL
48,0.09800000000000007,0.2822461583346409,-0.00812783953511948,-0.005246675581780343,0.00028367318506323613,10.429770460828433,4.835968124446408,0,1,1,1,1,0.09600000000000007,0.5960000000000001,0.5960000000000001,0.09600000000000007,0.0,0.0,0.0,0.0,4,floor<->FR|floor<->FL|floor<->RR|floor<->RL
49,0.10000000000000007,0.2825212438390527,-0.006175762876899588,-0.00575691246954186,0.00012361159292321411,13.850904576777612,7.153294504389636,0,1,1,1,1,0.09800000000000007,0.5980000000000001,0.5980000000000001,0.09800000000000007,0.0,0.0,0.0,0.0,4,floor<->FR|floor<->FL|floor<->RR|floor<->RL
50,0.10200000000000008,0.28287092033651384,-0.002638913068067541,-0.006662914114630712,0.00026134772555940725,10.024862031109825,3.9760525036565273,0,1,1,1,1,0.10000000000000007,0.6000000000000001,0.6000000000000001,0.10000000000000007,0.0,0.0,0.0,0.0,4,floor<->FR|floor<->FL|floor<->RR|floor<->RL
51,0.10400000000000008,0.2831062365537388,-0.0019850418870305192,-0.007423557611720036,3.9970806499985764e-05,12.862898365496337,6.317752370576967,0,1,1,1,1,0.10200000000000008,0.6020000000000001,0.6020000000000001,0.10200000000000008,0.0,0.0,0.0,0.0,4,floor<->FR|floor<->FL|floor<->RR|floor<->RL
52,0.10600000000000008,0.2834026764212755,0.0014933541866813174,-0.008192176889605421,0.0001815335709480193,11.604533472294836,4.57203425420186,0,1,1,1,1,0.10400000000000008,0.6040000000000001,0.6040000000000001,0.10400000000000008,0.0,0.0,0.0,0.0,4,floor<->FR|floor<->FL|floor<->RR|floor<->RL
53,0.10800000000000008,0.28358926531460865,0.002054813161338514,-0.008792371127468874,-1.818113173848122e-05,12.496321409769942,6.506273136835299,0,1,1,1,1,0.10600000000000008,0.6060000000000001,0.6060000000000001,0.10600000000000008,0.0,0.0,0.0,0.0,4,floor<->FR|floor<->FL|floor<->RR|floor<->RL
54,0.11000000000000008,0.2838334784576672,0.0054120361601919745,-0.009440134644925074,0.00014064667169343576,12.376741793587717,6.289001124183301,0,1,1,1,1,0.10800000000000008,0.6080000000000001,0.6080000000000001,0.10800000000000008,0.0,0.0,0.0,0.0,4,floor<->FR|floor<->FL|floor<->RR|floor<->RL
55,0.11200000000000009,0.2839640227373873,0.004038404105384937,-0.010177170875786828,0.0001856098087225783,12.52380240878607,6.761169847123156,0,1,1,1,1,0.11000000000000008,0.6100000000000001,0.6100000000000001,0.11000000000000008,0.0,0.0,0.0,0.0,4,floor<->FR|floor<->FL|floor<->RR|floor<->RL
56,0.11400000000000009,0.28411663806991044,0.007610660105031433,-0.010769470562080266,0.0003276832617989107,14.400475963569347,6.717607086505511,0,1,1,1,1,0.11200000000000009,0.6120000000000001,0.6120000000000001,0.11200000000000009,0.0,0.0,0.0,0.0,4,floor<->FR|floor<->FL|floor<->RR|floor<->RL
57,0.11600000000000009,0.28417982176748363,0.006973810077139495,-0.011358863477801096,0.0002916437995486662,12.881950916563078,7.039476201164936,0,1,1,1,1,0.11400000000000009,0.6140000000000001,0.6140000000000001,0.11400000000000009,0.0,0.0,0.0,0.0,3,floor<->FR|floor<->RR|floor<->RL
58,0.11800000000000009,0.284273651407143,0.011132706854499085,-0.011814040665760186,0.0003573950918146101,13.176978285250934,7.038635826271966,0,1,1,1,1,0.11600000000000009,0.6160000000000001,0.6160000000000001,0.11600000000000009,0.0,0.0,0.0,0.0,3,floor<->FR|floor<->RR|floor<->RL
59,0.12000000000000009,0.28427837771432224,0.010437859332336513,-0.012355611168151915,0.00031654512504617643,13.081748547465379,6.50656871289935,0,1,1,1,1,0.11800000000000009,0.6180000000000001,0.6180000000000001,0.11800000000000009,0.0,0.0,0.0,0.0,3,floor<->FR|floor<->RR|floor<->RL
60,0.1220000000000001,0.2843024353260389,0.01454271483259334,-0.01277575840052426,0.0003772975595197855,13.284630733788676,7.004319497424312,0,1,1,1,1,0.12000000000000009,0.6200000000000001,0.6200000000000001,0.12000000000000009,0.0,0.0,0.0,0.0,3,floor<->FR|floor<->RR|floor<->RL
61,0.1240000000000001,0.2842350609533228,0.013777581255008236,-0.01327556048415036,0.0003266413959432601,13.489397453816435,6.804074467234336,0,1,1,1,1,0.1220000000000001,0.6220000000000001,0.6220000000000001,0.1220000000000001,0.0,0.0,0.0,0.0,3,floor<->FR|floor<->RR|floor<->RL
62,0.12600000000000008,0.28418783271666664,0.017788953826980154,-0.013654478422080946,0.0003775938488481451,13.127264203525591,6.95768949524293,0,1,1,1,1,0.1240000000000001,0.6240000000000001,0.6240000000000001,0.1240000000000001,0.0,0.0,0.0,0.0,3,floor<->FR|floor<->RR|floor<->RL
63,0.12800000000000009,0.2840494553138726,0.016916600138795788,-0.01410735272944784,0.00031253697323925734,13.905762816412222,7.299567810347113,0,1,1,1,1,0.12600000000000008,0.6260000000000001,0.6260000000000001,0.12600000000000008,0.0,0.0,0.0,0.0,3,floor<->FR|floor<->RR|floor<->RL
64,0.1300000000000001,0.283931959128699,0.02048564043662881,-0.014327733132484885,0.0003386079701276679,13.026540573724828,6.919902876366171,0,1,1,1,1,0.12800000000000009,0.6280000000000001,0.6280000000000001,0.12800000000000009,0.0,0.0,0.0,0.0,3,floor<->FR|floor<->RR|floor<->RL
65,0.1320000000000001,0.28375099443527374,0.019505282782092286,-0.014714782511453977,0.0002568834051226933,12.061565013345835,6.6942284937737,0,1,1,1,1,0.1300000000000001,0.6300000000000001,0.6300000000000001,0.1300000000000001,0.0,0.0,0.0,0.0,3,floor<->FR|floor<->RR|floor<->RL
66,0.1340000000000001,0.2835685697747628,0.022755727176208163,-0.01477341363609435,0.0002539206182360964,12.940667705542243,6.893190748140112,0,1,1,1,1,0.1320000000000001,0.6320000000000001,0.6320000000000001,0.1320000000000001,0.0,0.0,0.0,0.0,3,floor<->FR|floor<->RR|floor<->RL
67,0.1360000000000001,0.28334563610238905,0.022008313421287496,-0.015519842556991379,0.0002979236609912749,12.890025295165639,6.793641004646108,0,1,1,1,1,0.1340000000000001,0.6340000000000001,0.6340000000000001,0.1340000000000001,0.0,0.0,0.0,0.0,3,floor<->FR|floor<->RR|floor<->RL
68,0.1380000000000001,0.2830842266326546,0.025298123507655885,-0.01531796157064302,0.0002233173228492665,13.939995729426261,6.914815545648697,0,1,1,1,1,0.1360000000000001,0.6360000000000001,0.6360000000000001,0.1360000000000001,0.0,0.0,0.0,0.0,3,floor<->FR|floor<->RR|floor<->RL
69,0.1400000000000001,0.2828158375141797,0.02422538965547447,-0.015749857216315114,0.000179696975224804,11.683871555393536,7.004872313633998,0,1,1,1,1,0.1380000000000001,0.6380000000000001,0.6380000000000001,0.1380000000000001,0.0,0.0,0.0,0.0,3,floor<->FR|floor<->RR|floor<->RL
70,0.1420000000000001,0.2825275694055355,0.027247235307085206,-0.01519329103855456,7.386635780938823e-06,12.862947705388704,6.8879250275435755,0,1,1,1,1,0.1400000000000001,0.6400000000000001,0.6400000000000001,0.1400000000000001,0.0,0.0,0.0,0.0,3,floor<->FR|floor<->RR|floor<->RL
71,0.1440000000000001,0.2822372833649143,0.026283285118368385,-0.015353542780666606,-0.00013547745130018858,12.669941889657439,7.217465009017111,0,1,1,1,1,0.1420000000000001,0.6420000000000001,0.6420000000000001,0.1420000000000001,0.0,0.0,0.0,0.0,3,floor<->FR|floor<->RR|floor<->RL
72,0.1460000000000001,0.28190657609567565,0.02935122521114652,-0.01444352905879192,-0.00043218703569798054,14.25932282471945,6.881117388502645,0,1,1,1,1,0.1440000000000001,0.6440000000000001,0.6440000000000001,0.1440000000000001,0.0,0.0,0.0,0.0,3,floor<->FR|floor<->RR|floor<->RL
73,0.1480000000000001,0.2815839615786235,0.029781233600181194,-0.01398374839276756,-0.001047566057561441,11.720737796629754,7.539081419834021,0,1,1,1,1,0.1460000000000001,0.6460000000000001,0.6460000000000001,0.1460000000000001,0.0,0.0,0.0,0.0,3,floor<->FR|floor<->RR|floor<->RL
74,0.1500000000000001,0.28126913620199834,0.03437729978768157,-0.01375482920922987,-0.001498839718499913,11.211203268069902,6.654991350988107,0,1,1,1,1,0.1480000000000001,0.6480000000000001,0.6480000000000001,0.1480000000000001,0.0,0.0,0.0,0.0,3,floor<->FR|floor<->RR|floor<->RL
75,0.1520000000000001,0.2808992146493687,0.034442909681443125,-0.013204368149949545,-0.0020960313311544,14.565083899599479,6.526935861786607,0,1,1,1,1,0.1500000000000001,0.6500000000000001,0.6500000000000001,0.1500000000000001,0.0,0.0,0.0,0.0,3,floor<->FR|floor<->RR|floor<->RL
76,0.1540000000000001,0.28052663486360435,0.03770773585034032,-0.011760465679484206,-0.002839227251177258,11.82386573588491,6.76625567903673,0,1,1,1,1,0.1520000000000001,0.6520000000000001,0.6520000000000001,0.1520000000000001,0.0,0.0,0.0,0.0,3,floor<->FR|floor<->RR|floor<->RL
77,0.1560000000000001,0.2802427065781674,0.037771430189721775,-0.010925403371683788,-0.0034857454541974897,11.145661837051788,6.020340766856954,0,1,1,1,1,0.1540000000000001,0.6540000000000001,0.6540000000000001,0.1540000000000001,0.0,0.0,0.0,0.0,3,floor<->FR|floor<->RR|floor<->RL
78,0.1580000000000001,0.27986622715868664,0.04103013675118577,-0.009216921213641552,-0.004269227720990124,15.480603411919693,7.077865831595846,0,1,1,1,1,0.1560000000000001,0.6560000000000001,0.6560000000000001,0.1560000000000001,0.0,0.0,0.0,0.0,3,floor<->FR|floor<->RR|floor<->RL
79,0.16000000000000011,0.2795889539178327,0.03945338618889859,-0.008372284310425393,-0.004936572735828846,9.787484789221002,6.011196490192567,0,1,1,1,1,0.1580000000000001,0.6580000000000001,0.6580000000000001,0.1580000000000001,0.0,0.0,0.0,0.0,3,floor<->FR|floor<->RR|floor<->RL
80,0.16200000000000012,0.2793145035140346,0.04177431847504196,-0.006482027077395137,-0.0057492460835563445,12.870284656643438,6.899023417181779,0,1,1,1,1,0.16000000000000011,0.6600000000000001,0.6600000000000001,0.16000000000000011,0.0,0.0,0.0,0.0,4,floor<->FR|floor<->FL|floor<->RR|floor<->RL
81,0.16400000000000012,0.27905648540513556,0.04061452047541206,-0.0057679130425883915,-0.006522023097287188,11.237823521678177,6.055814804006822,0,1,1,1,1,0.16200000000000012,0.6620000000000001,0.6620000000000001,0.16200000000000012,0.0,0.0,0.0,0.0,4,floor<->FR|floor<->FL|floor<->RR|floor<->RL
82,0.16600000000000012,0.2787486173376617,0.04273892178469017,-0.004224409529804705,-0.00738948441546364,11.536620646607393,6.936666677579089,0,1,1,1,1,0.16400000000000012,0.6640000000000001,0.6640000000000001,0.16400000000000012,0.0,0.0,0.0,0.0,4,floor<->FR|floor<->FL|floor<->RR|floor<->RL
83,0.16800000000000012,0.2785590938279556,0.04084626789659988,-0.0031367538690412265,-0.008182514537750785,10.326426247392613,5.955441900647951,0,1,1,1,1,0.16600000000000012,0.6660000000000001,0.6660000000000001,0.16600000000000012,0.0,0.0,0.0,0.0,4,floor<->FR|floor<->FL|floor<->RR|floor<->RL
84,0.17000000000000012,0.27832769604906693,0.04287109417828346,-0.0022623999733049262,-0.008841517289898983,14.890825853717313,7.013974276636837,0,1,1,1,1,0.16800000000000012,0.6680000000000001,0.6680000000000001,0.16800000000000012,0.0,0.0,0.0,0.0,4,floor<->FR|floor<->FL|floor<->RR|floor<->RL
85,0.17200000000000013,0.2781172135259303,0.04185100023921037,-0.0014583808283331735,-0.009345188499802448,10.365778299634515,5.886511245278591,0,1,1,1,1,0.17000000000000012,0.6700000000000002,0.6700000000000002,0.17000000000000012,0.0,0.0,0.0,0.0,4,floor<->FR|floor<->FL|floor<->RR|floor<->RL
86,0.17400000000000013,0.2779532891096119,0.04412298734283982,-5.3774808482374314e-05,-0.009857147730859436,10.353203976332013,6.7663890461998975,0,1,1,1,1,0.17200000000000013,0.6720000000000002,0.6720000000000002,0.17200000000000013,0.0,0.0,0.0,0.0,4,floor<->FR|floor<->FL|floor<->RR|floor<->RL
87,0.17600000000000013,0.2778954195576393,0.04222523797871905,0.00023887170465351616,-0.010266053354321968,10.715275786990068,6.109643445134399,0,1,1,1,1,0.17400000000000013,0.6740000000000002,0.6740000000000002,0.17400000000000013,0.0,0.0,0.0,0.0,4,floor<->FR|floor<->FL|floor<->RR|floor<->RL
88,0.17800000000000013,0.27779459854605465,0.04408885416941032,0.0017678594443331138,-0.010841948723965192,14.473151995625967,6.909960382859584,0,1,1,1,1,0.17600000000000013,0.6760000000000002,0.6760000000000002,0.17600000000000013,0.0,0.0,0.0,0.0,4,floor<->FR|floor<->FL|floor<->RR|floor<->RL
89,0.18000000000000013,0.2777251173065157,0.042717035617677354,0.003278844084984665,-0.01191680673049137,12.884741260238549,6.457113752936062,0,1,1,1,1,0.17800000000000013,0.6780000000000002,0.6780000000000002,0.17800000000000013,0.0,0.0,0.0,0.0,4,floor<->FR|floor<->FL|floor<->RR|floor<->RL
90,0.18200000000000013,0.2777439607390324,0.04461791744471964,0.004805867152733102,-0.012880313267596116,10.06031659001329,6.618414605682078,0,1,1,1,1,0.18000000000000013,0.6800000000000002,0.6800000000000002,0.18000000000000013,0.0,0.0,0.0,0.0,3,floor<->FR|floor<->FL|floor<->RR
91,0.18400000000000014,0.27786066460050624,0.04147274786899213,0.0053672690848315845,-0.013749346965757655,11.769804935680645,6.5663948306460735,0,1,1,1,1,0.18200000000000013,0.6820000000000002,0.6820000000000002,0.18200000000000013,0.0,0.0,0.0,0.0,4,floor<->FR|floor<->FL|floor<->RR|floor<->RL
92,0.18600000000000014,0.2779923068365378,0.042642798781679106,0.006177719466212942,-0.014576572329675455,11.353168804147698,6.7582052690797845,0,1,1,1,1,0.18400000000000014,0.6840000000000002,0.6840000000000002,0.18400000000000014,0.0,0.0,0.0,0.0,3,floor<->FR|floor<->FL|floor<->RR
93,0.18800000000000014,0.2780634734362382,0.03827473931247997,0.006776748849138394,-0.01556428976263424,13.39871760961103,6.84034923125226,0,1,1,1,1,0.18600000000000014,0.6860000000000002,0.6860000000000002,0.18600000000000014,0.0,0.0,0.0,0.0,4,floor<->FR|floor<->FL|floor<->RR|floor<->RL
94,0.19000000000000014,0.27821818381773716,0.03747240951561727,0.007330386746653378,-0.016453292846864264,11.427904051297423,6.778737436260659,0,1,1,1,1,0.18800000000000014,0.6880000000000002,0.6880000000000002,0.18800000000000014,0.0,0.0,0.0,0.0,3,floor<->FR|floor<->FL|floor<->RR
95,0.19200000000000014,0.2784754051555457,0.03448539718986853,0.007610586120845111,-0.017130494210664267,9.706202767237718,6.2172024394768135,0,1,1,1,1,0.19000000000000014,0.6900000000000002,0.6900000000000002,0.19000000000000014,0.0,0.0,0.0,0.0,4,floor<->FR|floor<->FL|floor<->RR|floor<->RL
96,0.19400000000000014,0.27866477435567966,0.03321920239028365,0.007937352759416741,-0.017792439629059166,12.236278722714731,6.525849858925074,0,1,1,1,1,0.19200000000000014,0.6920000000000002,0.6920000000000002,0.19200000000000014,0.0,0.0,0.0,0.0,3,floor<->FR|floor<->FL|floor<->RR
97,0.19600000000000015,0.2788881381467795,0.02708482308962285,0.008113246518263909,-0.01861857928407409,7.156149448192642,4.078041095435184,0,1,1,1,1,0.19400000000000014,0.6940000000000002,0.6940000000000002,0.19400000000000014,0.0,0.0,0.0,0.0,4,floor<->FR|floor<->FL|floor<->RR|floor<->RL
98,0.19800000000000015,0.27919708656279163,0.02566516808900462,0.008330140140279888,-0.019337211524378815,14.969934603804033,6.701025370167578,0,1,1,1,1,0.19600000000000015,0.6960000000000002,0.6960000000000002,0.19600000000000015,0.0,0.0,0.0,0.0,3,floor<->FR|floor<->FL|floor<->RR
99,0.20000000000000015,0.2794204246061359,0.019028478179197464,0.00842647226805463,-0.020244287580002372,10.367714867932762,5.77576787761363,0,1,1,1,1,0.19800000000000015,0.6980000000000002,0.6980000000000002,0.19800000000000015,0.0,0.0,0.0,0.0,4,floor<->FR|floor<->FL|floor<->RR|floor<->RL
100,0.20200000000000015,0.27972205515273585,0.016852039657817383,0.008678367285950141,-0.02111346399375056,13.027082759033433,6.699582774333697,0,1,1,1,1,0.20000000000000015,0.7000000000000002,0.7000000000000002,0.20000000000000015,0.0,0.0,0.0,0.0,4,floor<->FR|floor<->FL|floor<->RR|floor<->RL
101,0.20400000000000015,0.27996693997279226,0.009821209687273236,0.008492536641160175,-0.022026815225759465,12.01668058258757,7.065811700560762,0,1,1,1,1,0.20200000000000015,0.7020000000000002,0.7020000000000002,0.20200000000000015,0.0,0.0,0.0,0.0,4,floor<->FR|floor<->FL|floor<->RR|floor<->RL
102,0.20600000000000016,0.28025338814710804,0.0072170233566605955,0.00781816785133885,-0.022808369535183514,12.315050403283593,6.836405608137655,0,1,1,1,1,0.20400000000000015,0.7040000000000002,0.7040000000000002,0.20400000000000015,0.0,0.0,0.0,0.0,4,floor<->FR|floor<->FL|floor<->RR|floor<->RL
103,0.20800000000000016,0.2806014823617089,0.0004373682134663195,0.007201725443105156,-0.023691985392425233,10.370367378203088,6.257922786214125,0,1,1,1,1,0.20600000000000016,0.7060000000000002,0.7060000000000002,0.20600000000000016,0.0,0.0,0.0,0.0,4,floor<->FR|floor<->FL|floor<->RR|floor<->RL
104,0.21000000000000016,0.280835370726443,-0.0016973659953548946,0.0065523353319660235,-0.024373662300780013,14.940450201231828,6.921950502782257,0,1,1,1,1,0.20800000000000016,0.7080000000000002,0.7080000000000002,0.20800000000000016,0.0,0.0,0.0,0.0,4,floor<->FR|floor<->FL|floor<->RR|floor<->RL
105,0.21200000000000016,0.2811624185438244,-0.007041555187427106,0.005800850247567101,-0.0248804597395098,7.594462043235021,4.515978661085585,0,1,1,1,1,0.21000000000000016,0.7100000000000002,0.7100000000000002,0.21000000000000016,0.0,0.0,0.0,0.0,4,floor<->FR|floor<->FL|floor<->RR|floor<->RL
106,0.21400000000000016,0.28142111910208606,-0.006962916711751082,0.0052041215302633245,-0.025311550505578536,15.282778179532965,8.651883586188855,0,1,1,1,1,0.21200000000000016,0.7120000000000002,0.7120000000000002,0.21200000000000016,0.0,0.0,0.0,0.0,4,floor<->FR|floor<->FL|floor<->RR|floor<->RL
107,0.21600000000000016,0.28166240173292817,-0.012371950377131236,0.004347747587093923,-0.02577682464467586,10.786011974644016,6.095110508846504,0,1,1,1,1,0.21400000000000016,0.7140000000000002,0.7140000000000002,0.21400000000000016,0.0,0.0,0.0,0.0,4,floor<->FR|floor<->FL|floor<->RR|floor<->RL
108,0.21800000000000017,0.2818691087577788,-0.01239452137983297,0.003245281524123085,-0.02601101445697467,14.333970301754514,6.95515335090157,0,1,1,1,1,0.21600000000000016,0.7160000000000002,0.7160000000000002,0.21600000000000016,0.0,0.0,0.0,0.0,4,floor<->FR|floor<->FL|floor<->RR|floor<->RL
109,0.22000000000000017,0.28206529861041996,-0.017717924993137693,0.0023936267165990946,-0.026450341128490366,10.142173282214808,6.164961296240415,0,1,1,1,1,0.21800000000000017,0.7180000000000002,0.7180000000000002,0.21800000000000017,0.0,0.0,0.0,0.0,4,floor<->FR|floor<->FL|floor<->RR|floor<->RL
110,0.22200000000000017,0.2822175531230488,-0.01782934972406504,0.0011755125293414135,-0.026628314417894983,14.472526449781979,7.092915233683016,0,1,1,1,1,0.22000000000000017,0.7200000000000002,0.7200000000000002,0.22000000000000017,0.0,0.0,0.0,0.0,4,floor<->FR|floor<->FL|floor<->RR|floor<->RL
111,0.22400000000000017,0.28237150718744586,-0.021210668140225496,7.590948206212661e-05,-0.02687459493146998,11.44515807761122,6.317498971371943,0,1,1,1,1,0.22200000000000017,0.7220000000000002,0.7220000000000002,0.22200000000000017,0.0,0.0,0.0,0.0,4,floor<->FR|floor<->FL|floor<->RR|floor<->RL
112,0.22600000000000017,0.28250014980603255,-0.023214767575714272,-0.0013720887372759866,-0.027206695496949693,13.221379990430291,7.868996558513955,0,1,1,1,1,0.22400000000000017,0.7240000000000002,0.7240000000000002,0.22400000000000017,0.0,0.0,0.0,0.0,4,floor<->FR|floor<->FL|floor<->RR|floor<->RL
113,0.22800000000000017,0.2826315779531458,-0.023692459433497855,-0.002485156002179201,-0.02770883646461076,8.098619383660834,4.963510288455818,0,1,1,1,1,0.22600000000000017,0.7260000000000002,0.7260000000000002,0.22600000000000017,0.0,0.0,0.0,0.0,4,floor<->FR|floor<->FL|floor<->RR|floor<->RL
114,0.23000000000000018,0.28278233872335956,-0.027683038794870444,-0.0035419157321520574,-0.02776554829720831,10.765470857464127,5.412184274489281,0,1,1,1,1,0.22800000000000017,0.7280000000000002,0.7280000000000002,0.22800000000000017,0.0,0.0,0.0,0.0,4,floor<->FR|floor<->FL|floor<->RR|floor<->RL
115,0.23200000000000018,0.2829075625839696,-0.028183620605132277,-0.00465400989145644,-0.028258099053530793,14.056962571722304,8.489649005585688,0,1,1,1,1,0.23000000000000018,0.7300000000000002,0.7300000000000002,0.23000000000000018,0.0,0.0,0.0,0.0,4,floor<->FR|floor<->FL|floor<->RR|floor<->RL
116,0.23400000000000018,0.28300068142692364,-0.03215439139949418,-0.005604566393206617,-0.02828184586059296,10.204083538853137,5.6611294640014584,0,1,1,1,1,0.23200000000000018,0.7320000000000002,0.7320000000000002,0.23200000000000018,0.0,0.0,0.0,0.0,4,floor<->FR|floor<->FL|floor<->RR|floor<->RL
117,0.23600000000000018,0.2830827452599308,-0.03313274735431631,-0.0067021197075977324,-0.028668058508745337,13.388802040458721,6.079929653227975,0,1,1,1,1,0.23400000000000018,0.7340000000000002,0.7340000000000002,0.23400000000000018,0.0,0.0,0.0,0.0,4,floor<->FR|floor<->FL|floor<->RR|floor<->RL
118,0.23800000000000018,0.2831227788453122,-0.03727357764760419,-0.008099793624296052,-0.02874484516863067,10.28669524254171,4.981916278536205,0,1,1,1,1,0.23600000000000018,0.7360000000000002,0.7360000000000002,0.23600000000000018,0.0,0.0,0.0,0.0,3,floor<->FL|floor<->RR|floor<->RL
119,0.24000000000000019,0.283184664366067,-0.03891636819844771,-0.009042823673103413,-0.02896960647173364,12.871001001340991,6.469369097359817,0,1,1,1,1,0.23800000000000018,0.7380000000000002,0.7380000000000002,0.23800000000000018,0.0,0.0,0.0,0.0,3,floor<->FL|floor<->RR|floor<->RL
120,0.2420000000000002,0.2831921879063906,-0.04160812306342743,-0.010498315304145486,-0.02906405585511279,8.914959508019436,4.370377478920904,0,1,1,1,1,0.24000000000000019,0.7400000000000002,0.7400000000000002,0.24000000000000019,0.0,0.0,0.0,0.0,3,floor<->FL|floor<->RR|floor<->RL
121,0.2440000000000002,0.28320179147768304,-0.04472221207126016,-0.011004351344532861,-0.028821704371119354,9.03646965628645,5.638363253875824,0,1,1,1,1,0.2420000000000002,0.7420000000000002,0.7420000000000002,0.2420000000000002,0.0,0.0,0.0,0.0,3,floor<->FL|floor<->RR|floor<->RL
122,0.2460000000000002,0.28318472752059354,-0.04524289515469552,-0.012697347714600375,-0.028778799134743842,11.723428298501187,6.30410340318024,0,1,1,1,1,0.2440000000000002,0.7440000000000002,0.7440000000000002,0.2440000000000002,0.0,0.0,0.0,0.0,3,floor<->FL|floor<->RR|floor<->RL
123,0.2480000000000002,0.2831681904888429,-0.04773653673720203,-0.013898981681622595,-0.02896725108281899,8.970702207207902,5.924426118255675,0,1,1,1,1,0.2460000000000002,0.7460000000000002,0.7460000000000002,0.2460000000000002,0.0,0.0,0.0,0.0,3,floor<->FL|floor<->RR|floor<->RL
124,0.25000000000000017,0.2832003917827731,-0.046018382710585434,-0.015685962385394006,-0.02912233677877694,11.443229102348527,6.867096630372676,0,1,1,1,1,0.2480000000000002,0.7480000000000002,0.7480000000000002,0.2480000000000002,0.0,0.0,0.0,0.0,3,floor<->FL|floor<->RR|floor<->RL
125,0.25200000000000017,0.28316457390637545,-0.04874419111108056,-0.017351060081061825,-0.029478686226922925,12.97461450701492,6.287611043841407,0,1,0,0,1,0.25000000000000017,0.7500000000000002,0.7500000000000002,0.25000000000000017,0.0,8.881784197001252e-16,8.881784197001252e-16,0.0,3,floor<->FL|floor<->RR|floor<->RL
126,0.25400000000000017,0.2831360309416457,-0.046863471792344465,-0.018830881316354152,-0.029581103570227293,11.56661586529726,6.889542383226145,0,1,0,0,1,0.25200000000000017,0.7520000000000002,0.7520000000000002,0.25200000000000017,0.0,0.008000000000000895,0.008000000000000895,0.0,3,floor<->FL|floor<->RR|floor<->RL
127,0.25600000000000017,0.28307886880882627,-0.04866793474345181,-0.01922368981633224,-0.029663120720377936,14.644359444774608,7.810063558243004,0,1,0,0,1,0.25400000000000017,0.7540000000000002,0.7540000000000002,0.25400000000000017,0.0,0.016000000000000902,0.016000000000000902,0.0,3,floor<->FL|floor<->RR|floor<->RL
128,0.2580000000000002,0.28313205833079963,-0.0485385420257689,-0.020638837684467903,-0.029974231733733692,9.334012768529051,4.441020603124837,0,1,0,0,1,0.25600000000000017,0.7560000000000002,0.7560000000000002,0.25600000000000017,0.0,0.02400000000000091,0.02400000000000091,0.0,3,floor<->FL|floor<->RR|floor<->RL
129,0.2600000000000002,0.2830820443114545,-0.05237895919238637,-0.020644916262996343,-0.030208596313655946,14.013325813869873,7.251998840481719,0,1,0,0,1,0.2580000000000002,0.7580000000000002,0.7580000000000002,0.2580000000000002,0.0,0.03200000000000092,0.03200000000000092,0.0,3,floor<->FL|floor<->RR|floor<->RL
130,0.2620000000000002,0.2830806865993087,-0.05080501417785194,-0.021366094519099585,-0.030295240573844136,11.057374675194513,5.446970221701498,0,1,0,0,1,0.2600000000000002,0.7600000000000002,0.7600000000000002,0.2600000000000002,0.0,0.040000000000000924,0.040000000000000924,0.0,3,floor<->FL|floor<->RR|floor<->RL
131,0.2640000000000002,0.28307030936208444,-0.05352650827860007,-0.021430882004818096,-0.030528906932312496,11.71753844381705,7.4279978695366315,0,1,0,0,1,0.2620000000000002,0.7620000000000002,0.7620000000000002,0.2620000000000002,0.0,0.04800000000000093,0.04800000000000093,0.0,3,floor<->FL|floor<->RR|floor<->RL
132,0.2660000000000002,0.2830729854455278,-0.051111941114446655,-0.022156121151967623,-0.030627069290772833,11.601196332008874,6.748121953980842,0,1,0,0,1,0.2640000000000002,0.7640000000000002,0.7640000000000002,0.2640000000000002,0.0,0.05600000000000094,0.05600000000000094,0.0,3,floor<->FL|floor<->RR|floor<->RL
133,0.2680000000000002,0.28308286695934054,-0.0531546311603438,-0.023076279955830923,-0.031022906448564067,9.305963651812815,5.186447968422526,0,1,0,0,1,0.2660000000000002,0.7660000000000002,0.7660000000000002,0.2660000000000002,0.0,0.06400000000000095,0.06400000000000095,0.0,3,floor<->FL|floor<->RR|floor<->RL
134,0.2700000000000002,0.28307623412573873,-0.0501397213275088,-0.023621993637082807,-0.031043668233582702,14.967265525875037,8.421364054536708,0,1,0,0,1,0.2680000000000002,0.7680000000000002,0.7680000000000002,0.2680000000000002,0.0,0.07200000000000095,0.07200000000000095,0.0,3,floor<->FL|floor<->RR|floor<->RL
135,0.2720000000000002,0.2830591124937793,-0.05090764462598132,-0.023355151239352733,-0.031142014684483705,10.601223013083379,5.248217562106722,0,1,0,0,1,0.2700000000000002,0.7700000000000002,0.7700000000000002,0.2700000000000002,0.0,0.08000000000000096,0.08000000000000096,0.0,3,floor<->FL|floor<->RR|floor<->RL
136,0.2740000000000002,0.2831377347195816,-0.04706352478119086,-0.024209441632514254,-0.031237654248356225,10.158091194242582,5.683367395630103,0,1,0,0,1,0.2720000000000002,0.7720000000000002,0.7720000000000002,0.2720000000000002,0.0,0.08800000000000097,0.08800000000000097,0.0,3,floor<->FL|floor<->RR|floor<->RL
137,0.2760000000000002,0.2831583601173535,-0.04732337049472219,-0.023550059925315763,-0.031209111614803994,11.955896322009234,6.16067414804666,0,1,0,0,1,0.2740000000000002,0.7740000000000002,0.7740000000000002,0.2740000000000002,0.0,0.09600000000000097,0.09600000000000097,0.0,3,floor<->FL|floor<->RR|floor<->RL
138,0.2780000000000002,0.2832390847263534,-0.045259783241061405,-0.023822881815607464,-0.03097669734776229,11.47688623366409,6.305165953816632,0,1,0,0,1,0.2760000000000002,0.7760000000000002,0.7760000000000002,0.2760000000000002,0.0,0.10400000000000098,0.10400000000000098,0.0,3,floor<->FL|floor<->RR|floor<->RL
139,0.2800000000000002,0.28328102151544643,-0.04258602003651376,-0.023235777038755148,-0.030690504419961177,13.85977758184839,7.558528750865435,0,1,0,0,1,0.2780000000000002,0.7780000000000002,0.7780000000000002,0.2780000000000002,0.0,0.11200000000000099,0.11200000000000099,0.0,3,floor<->FL|floor<->RR|floor<->RL
140,0.2820000000000002,0.28342575776994944,-0.04362223416149212,-0.022337774044228466,-0.029968869765128907,9.639922649029533,4.885966140626145,0,1,0,0,1,0.2800000000000002,0.7800000000000002,0.7800000000000002,0.2800000000000002,0.0,0.120000000000001,0.120000000000001,0.0,3,floor<->FL|floor<->RR|floor<->RL
141,0.2840000000000002,0.2836102500219928,-0.041991273844518305,-0.021709160728775743,-0.029256576085516378,12.3910003307817,6.711832458798108,0,1,0,0,1,0.2820000000000002,0.7820000000000003,0.7820000000000003,0.2820000000000002,0.0,0.128000000000001,0.128000000000001,0.0,3,floor<->FL|floor<->RR|floor<->RL
142,0.2860000000000002,0.28370430844070105,-0.03829867556451441,-0.021051554051015425,-0.028225540816103453,9.81168870481712,6.46758202821663,0,1,0,0,1,0.2840000000000002,0.7840000000000003,0.7840000000000003,0.2840000000000002,0.0,0.136000000000001,0.136000000000001,0.0,3,floor<->FL|floor<->RR|floor<->RL
143,0.2880000000000002,0.28386937616785624,-0.039193581410434095,-0.01980489445111167,-0.027406802527403802,7.971152711810152,4.68017613013851,0,1,0,0,1,0.2860000000000002,0.7860000000000003,0.7860000000000003,0.2860000000000002,0.0,0.14400000000000102,0.14400000000000102,0.0,3,floor<->FL|floor<->RR|floor<->RL
144,0.2900000000000002,0.2840348113121754,-0.034746743364533185,-0.01932949899355002,-0.02646398116216604,13.964736421834642,7.566967170870188,0,1,0,0,1,0.2880000000000002,0.7880000000000003,0.7880000000000003,0.2880000000000002,0.0,0.15200000000000102,0.15200000000000102,0.0,3,floor<->FL|floor<->RR|floor<->RL
145,0.2920000000000002,0.28419050193319395,-0.034710650883524485,-0.01832359593446165,-0.025681304808516905,9.866120070534173,4.991430718275211,0,1,0,0,1,0.2900000000000002,0.7900000000000003,0.7900000000000003,0.2900000000000002,0.0,0.16000000000000103,0.16000000000000103,0.0,3,floor<->FL|floor<->RR|floor<->RL
146,0.2940000000000002,0.2843920094187122,-0.03073836187274188,-0.017792262735167846,-0.02490004755730506,11.214495924548077,4.327689312939005,0,1,0,0,1,0.2920000000000002,0.7920000000000003,0.7920000000000003,0.2920000000000002,0.0,0.16800000000000104,0.16800000000000104,0.0,3,floor<->FL|floor<->RR|floor<->RL
147,0.2960000000000002,0.28455334872172017,-0.030902320009934026,-0.0169104443976132,-0.024398126897357177,11.119244547443218,6.246851982049524,0,1,0,0,1,0.2940000000000002,0.7940000000000003,0.7940000000000003,0.2940000000000002,0.0,0.17600000000000104,0.17600000000000104,0.0,3,floor<->FL|floor<->RR|floor<->RL
148,0.2980000000000002,0.2848055763318476,-0.027906039213764968,-0.017182100020467387,-0.02405198793460155,9.876746074820218,4.913517718059729,0,1,0,0,1,0.2960000000000002,0.7960000000000003,0.7960000000000003,0.2960000000000002,0.0,0.18400000000000105,0.18400000000000105,0.0,3,floor<->FL|floor<->RR|floor<->RL
149,0.3000000000000002,0.2849726851719379,-0.029057443559054933,-0.01622071659653812,-0.023736060371647282,13.241922601992847,7.062165380683614,0,1,0,0,1,0.2980000000000002,0.7980000000000003,0.7980000000000003,0.2980000000000002,0.0,0.19200000000000106,0.19200000000000106,0.0,3,floor<->FL|floor<->RR|floor<->RL
150,0.3020000000000002,0.28521868662162203,-0.025839037736802985,-0.015394981181524285,-0.023728361651274912,8.785995039529512,4.140313238450096,0,1,0,0,1,0.3000000000000002,0.8000000000000003,0.8000000000000003,0.3000000000000002,0.0,0.20000000000000107,0.20000000000000107,0.0,3,floor<->FL|floor<->RR|floor<->RL
151,0.3040000000000002,0.2855293067075078,-0.025922740772161973,-0.015103199311936502,-0.02370177499385576,9.843885510509566,5.139411093108619,0,1,0,0,1,0.3020000000000002,0.8020000000000003,0.8020000000000003,0.3020000000000002,0.0,0.20800000000000107,0.20800000000000107,0.0,3,floor<->FL|floor<->RR|floor<->RL
152,0.3060000000000002,0.2857964702265323,-0.02226918802450251,-0.014142215407600961,-0.023950756493235276,11.989133264232844,6.897231235971494,0,1,0,0,1,0.3040000000000002,0.8040000000000003,0.8040000000000003,0.3040000000000002,0.0,0.21600000000000108,0.21600000000000108,0.0,3,floor<->FL|floor<->RR|floor<->RL
153,0.3080000000000002,0.2861390744662754,-0.023091169266357497,-0.013496388475090399,-0.024521464037868385,9.756903876620227,5.160034512006573,0,1,0,0,1,0.3060000000000002,0.8060000000000003,0.8060000000000003,0.3060000000000002,0.0,0.2240000000000011,0.2240000000000011,0.0,3,floor<->FL|floor<->RR|floor<->RL
154,0.3100000000000002,0.2864851891021835,-0.018807843617344853,-0.01314192213972875,-0.02500483009381757,12.213230069343334,7.00837752442367,0,1,0,0,1,0.3080000000000002,0.8080000000000003,0.8080000000000003,0.3080000000000002,0.0,0.2320000000000011,0.2320000000000011,0.0,3,floor<->FL|floor<->RR|floor<->RL
155,0.3120000000000002,0.2868441743910937,-0.019583340782873895,-0.012434466211675543,-0.025665580731096708,13.21994716607722,8.143109872373458,0,1,0,0,1,0.3100000000000002,0.8100000000000003,0.8100000000000003,0.3100000000000002,0.0,0.2400000000000011,0.2400000000000011,0.0,3,floor<->FL|floor<->RR|floor<->RL
156,0.3140000000000002,0.28714575331236086,-0.015848478666317955,-0.011018633978305057,-0.026454091367564752,15.234034099629017,8.340392870506605,0,1,0,0,1,0.3120000000000002,0.8120000000000003,0.8120000000000003,0.3120000000000002,0.0,0.2480000000000011,0.2480000000000011,0.0,3,floor<->FL|floor<->RR|floor<->RL
157,0.3160000000000002,0.28757619215199837,-0.01618514684619597,-0.010304378111989147,-0.02720784954007325,10.529121012783929,5.490729186470132,0,1,0,0,1,0.3140000000000002,0.8140000000000003,0.8140000000000003,0.3140000000000002,0.0,0.2560000000000011,0.2560000000000011,0.0,3,floor<->FL|floor<->RR|floor<->RL
158,0.3180000000000002,0.2880082791144227,-0.0116717275736237,-0.010045266752185809,-0.02795781575947085,12.037117479559248,6.819109607742435,0,1,0,0,1,0.3160000000000002,0.8160000000000003,0.8160000000000003,0.3160000000000002,0.0,0.2640000000000011,0.2640000000000011,0.0,3,floor<->FL|floor<->RR|floor<->RL
159,0.32000000000000023,0.2884378862969642,-0.012253988363777845,-0.009420171037426123,-0.028884564444886775,13.6185225663951,7.926091440389514,0,1,0,0,1,0.3180000000000002,0.8180000000000003,0.8180000000000003,0.3180000000000002,0.0,0.27200000000000113,0.27200000000000113,0.0,3,floor<->FL|floor<->RR|floor<->RL
160,0.32200000000000023,0.28881086494106006,-0.008676827736254186,-0.008062753199939517,-0.029912368591246786,15.085585741665737,7.932883100432894,0,1,0,0,1,0.32000000000000023,0.8200000000000003,0.8200000000000003,0.32000000000000023,0.0,0.28000000000000114,0.28000000000000114,0.0,2,floor<->FL|floor<->RR
161,0.32400000000000023,0.2893104551586847,-0.008708945152476413,-0.007417262285266434,-0.030849451055209125,10.805374811485523,5.5910677954134895,0,1,0,0,1,0.32200000000000023,0.8220000000000003,0.8220000000000003,0.32200000000000023,0.0,0.28800000000000114,0.28800000000000114,0.0,2,floor<->FL|floor<->RR
162,0.32600000000000023,0.28980039488365733,-0.006208520799849553,-0.006622730564337909,-0.031619810908514207,11.449464652287167,6.276963909626783,0,1,0,0,1,0.32400000000000023,0.8240000000000003,0.8240000000000003,0.32400000000000023,0.0,0.29600000000000115,0.29600000000000115,0.0,2,floor<->FL|floor<->RR
163,0.32800000000000024,0.29030610777030286,-0.008039931896318872,-0.005822523917867554,-0.03259860907041983,9.835837722121736,5.347287568701204,0,1,0,0,1,0.32600000000000023,0.8260000000000003,0.8260000000000003,0.32600000000000023,0.0,0.30400000000000116,0.30400000000000116,0.0,2,floor<->FL|floor<->RR
164,0.33000000000000024,0.29084244711558643,-0.004700667549150677,-0.005173071446723767,-0.033424969396799065,12.911938143848277,7.517892429216778,0,1,0,0,1,0.32800000000000024,0.8280000000000003,0.8280000000000003,0.32800000000000024,0.0,0.31200000000000117,0.31200000000000117,0.0,2,floor<->FL|floor<->RR
165,0.33200000000000024,0.2913984391405298,-0.006459018534038083,-0.004157969306706743,-0.034435256718124085,13.77301294403563,7.127983231830507,0,1,0,0,1,0.33000000000000024,0.8300000000000003,0.8300000000000003,0.33000000000000024,0.0,0.3200000000000012,0.3200000000000012,0.0,2,floor<->FL|floor<->RR
166,0.33400000000000024,0.2918953031852249,-0.0037471692086630984,-0.0024308443519363,-0.03556176184889376,14.061343076481915,7.606593813693419,0,1,0,0,1,0.33200000000000024,0.8320000000000003,0.8320000000000003,0.33200000000000024,0.0,0.3280000000000012,0.3280000000000012,0.0,2,floor<->FL|floor<->RR
167,0.33600000000000024,0.29251924752838526,-0.003995287466374791,-0.0015455080611132678,-0.036632346088649924,10.347836232508698,5.290063304849815,0,1,0,0,1,0.33400000000000024,0.8340000000000003,0.8340000000000003,0.33400000000000024,0.0,0.3360000000000012,0.3360000000000012,0.0,2,floor<->FL|floor<->RR
168,0.33800000000000024,0.2930893578321536,-0.001014303544068642,0.000257446045738136,-0.03790960554477997,14.431747763260416,8.278028276129568,0,1,0,0,1,0.33600000000000024,0.8360000000000003,0.8360000000000003,0.33600000000000024,0.0,0.3440000000000012,0.3440000000000012,0.0,2,floor<->FL|floor<->RR
169,0.34000000000000025,0.29371053277655124,-0.0020906113021319918,0.0013946624167187238,-0.039186564407962976,13.559951094556899,7.615310537781777,0,1,0,0,1,0.33800000000000024,0.8380000000000003,0.8380000000000003,0.33800000000000024,0.0,0.3520000000000012,0.3520000000000012,0.0,2,floor<->FL|floor<->RR
170,0.34200000000000025,0.29433441798445903,0.00134973236892914,0.0027387733438384667,-0.040399133913585156,11.537049446948542,6.772325032416035,0,1,0,0,1,0.34000000000000025,0.8400000000000003,0.8400000000000003,0.34000000000000025,0.0,0.3600000000000012,0.3600000000000012,0.0,2,floor<->FL|floor<->RR
171,0.34400000000000025,0.29504615127589057,0.0008253718319147309,0.003571894195519614,-0.04153963566214446,11.518717723084423,5.4040449792010365,0,1,0,0,1,0.34200000000000025,0.8420000000000003,0.8420000000000003,0.34200000000000025,0.0,0.3680000000000012,0.3680000000000012,0.0,2,floor<->FL|floor<->RR
172,0.34600000000000025,0.29561336499387725,0.004651464986844326,0.005072233941346774,-0.04278535094609435,16.84702104130039,7.963407464969041,0,1,0,0,1,0.34400000000000025,0.8440000000000003,0.8440000000000003,0.34400000000000025,0.0,0.3760000000000012,0.3760000000000012,0.0,2,floor<->FL|floor<->RR
173,0.34800000000000025,0.29629543735007124,0.0040579781027155655,0.0063106766710706854,-0.044219893825246555,10.960021753920799,5.459450514034867,0,1,0,0,1,0.34600000000000025,0.8460000000000003,0.8460000000000003,0.34600000000000025,0.0,0.38400000000000123,0.38400000000000123,0.0,2,floor<->FL|floor<->RR
174,0.35000000000000026,0.2969762511386281,0.007628705512124756,0.0074272307573092725,-0.045614681163419095,12.766985000112594,6.975948359951818,0,1,0,0,1,0.34800000000000025,0.8480000000000003,0.8480000000000003,0.34800000000000025,0.0,0.39200000000000124,0.39200000000000124,0.0,2,floor<->FL|floor<->RR
175,0.35200000000000026,0.2976187059093767,0.006816791005017241,0.008428851034547918,-0.04716939723454159,13.300897869120066,6.586675634425957,0,1,0,0,1,0.35000000000000026,0.8500000000000003,0.8500000000000003,0.35000000000000026,0.0,0.40000000000000124,0.40000000000000124,0.0,2,floor<->FL|floor<->RR
176,0.35400000000000026,0.2982731859389397,0.009811863570210933,0.009641470277099147,-0.0486611001711024,11.365342037176669,7.472381595473892,0,1,0,0,1,0.35200000000000026,0.8520000000000003,0.8520000000000003,0.35200000000000026,0.0,0.40800000000000125,0.40800000000000125,0.0,2,floor<->FL|floor<->RR
177,0.35600000000000026,0.29896035547915845,0.010921213896161285,0.010209534700879656,-0.049997007949170044,12.042642886826581,5.358579729539107,0,1,0,0,1,0.35400000000000026,0.8540000000000003,0.8540000000000003,0.35400000000000026,0.0,0.41600000000000126,0.41600000000000126,0.0,2,floor<->FL|floor<->RR
178,0.35800000000000026,0.2995666422041413,0.01315254325260902,0.01179124837606616,-0.051664533649963366,12.742008222426845,7.922923895587586,0,1,0,0,1,0.35600000000000026,0.8560000000000003,0.8560000000000003,0.35600000000000026,0.0,0.42400000000000126,0.42400000000000126,0.0,2,floor<->FL|floor<->RR
179,0.36000000000000026,0.30018281816175457,0.01188395656661032,0.012632508919749102,-0.05337874282477022,13.476670689221969,6.219645151321469,0,1,0,0,1,0.35800000000000026,0.8580000000000003,0.8580000000000003,0.35800000000000026,0.0,0.43200000000000127,0.43200000000000127,0.0,2,floor<->FL|floor<->RR
180,0.36200000000000027,0.3007877878259623,0.01542804243014277,0.013670167104023188,-0.05506361986720057,9.356324232462276,5.80658850680717,0,1,0,0,1,0.36000000000000026,0.8600000000000003,0.8600000000000003,0.36000000000000026,0.0,0.4400000000000013,0.4400000000000013,0.0,2,floor<->FL|floor<->RR
181,0.36400000000000027,0.3014252127727917,0.014187856490467853,0.01435220424490939,-0.05670831218574393,13.997040735371636,5.822997321499179,0,1,0,0,1,0.36200000000000027,0.8620000000000003,0.8620000000000003,0.36200000000000027,0.0,0.4480000000000013,0.4480000000000013,0.0,2,floor<->FL|floor<->RR
182,0.36600000000000027,0.3019671439813388,0.017343585173526094,0.015183428546891043,-0.0582866240512532,11.40870694893253,5.83727633906469,0,1,0,0,1,0.36400000000000027,0.8640000000000003,0.8640000000000003,0.36400000000000027,0.0,0.4560000000000013,0.4560000000000013,0.0,2,floor<->FL|floor<->RR
183,0.36800000000000027,0.3025877000401891,0.016916266886966784,0.015074347186524456,-0.05991262322195142,11.542640653267213,5.322121021573153,0,1,0,0,1,0.36600000000000027,0.8660000000000003,0.8660000000000003,0.36600000000000027,0.0,0.4640000000000013,0.4640000000000013,0.0,2,floor<->FL|floor<->RR
184,0.3700000000000003,0.3031142444217237,0.02002796220474669,0.01592707995577534,-0.06156374355221368,13.429873230065091,7.438222325706261,0,1,0,0,1,0.36800000000000027,0.8680000000000003,0.8680000000000003,0.36800000000000027,0.0,0.4720000000000013,0.4720000000000013,0.0,2,floor<->FL|floor<->RR
185,0.3720000000000003,0.3036944081049934,0.01903155246342877,0.015891069089933048,-0.06329930732562598,12.39546707031753,5.650070301095945,0,1,0,0,1,0.3700000000000003,0.8700000000000003,0.8700000000000003,0.3700000000000003,0.0,0.4800000000000013,0.4800000000000013,0.0,2,floor<->FL|floor<->RR
186,0.3740000000000003,0.30422704185932453,0.022619741362298995,0.016153203428474826,-0.06508402070677743,10.827012283031753,5.7366268819389,0,1,0,0,1,0.3720000000000003,0.8720000000000003,0.8720000000000003,0.3720000000000003,0.0,0.4880000000000013,0.4880000000000013,0.0,2,floor<->FL|floor<->RR
187,0.3760000000000003,0.30479037684221016,0.021515105419649197,0.016060183673805583,-0.06682271869620197,13.699643259674986,5.607827542102736,0,1,0,0,1,0.3740000000000003,0.8740000000000003,0.8740000000000003,0.3740000000000003,0.0,0.49600000000000133,0.49600000000000133,0.0,2,floor<->FL|floor<->RR
188,0.3780000000000003,0.30525561256701217,0.024646224728625713,0.016541175655898688,-0.06861916596454286,11.294369637777546,5.7554365582884035,0,1,0,0,1,0.3760000000000003,0.8760000000000003,0.8760000000000003,0.3760000000000003,0.0,0.5040000000000013,0.5040000000000013,0.0,2,floor<->FL|floor<->RR
189,0.3800000000000003,0.3058045604388954,0.025762779593548467,0.016291675424266665,-0.07018977120034713,15.048010288981285,7.533104468973434,0,1,0,0,1,0.3780000000000003,0.8780000000000003,0.8780000000000003,0.3780000000000003,0.0,0.5120000000000013,0.5120000000000013,0.0,2,floor<->FL|floor<->RR
190,0.3820000000000003,0.30624140176352316,0.02694512334622941,0.016527579488153043,-0.07183888937482992,11.726506220604078,7.270188127152071,0,1,0,0,1,0.3800000000000003,0.8800000000000003,0.8800000000000003,0.3800000000000003,0.0,0.5200000000000014,0.5200000000000014,0.0,2,floor<->FL|floor<->RR
191,0.3840000000000003,0.30671300821854164,0.028791429864968,0.015981738288029044,-0.07356558818282738,12.05793466512154,5.904946564365398,0,1,0,0,1,0.3820000000000003,0.8820000000000003,0.8820000000000003,0.3820000000000003,0.0,0.5280000000000014,0.5280000000000014,0.0,2,floor<->FL|floor<->RR
192,0.3860000000000003,0.3071428531520537,0.030011222215394776,0.016148392746860002,-0.07537398493574124,12.267263309574302,6.1595492789597905,0,1,0,0,1,0.3840000000000003,0.8840000000000003,0.8840000000000003,0.3840000000000003,0.0,0.5360000000000014,0.5360000000000014,0.0,2,floor<->FL|floor<->RR
193,0.3880000000000003,0.3075425460219955,0.034046041922238465,0.015575052167888029,-0.07734776359216103,11.855455947177155,5.876626895725005,0,1,0,0,1,0.3860000000000003,0.8860000000000003,0.8860000000000003,0.3860000000000003,0.0,0.5440000000000014,0.5440000000000014,0.0,2,floor<->FL|floor<->RR
194,0.3900000000000003,0.30788390043052466,0.033575378689457064,0.01564809760534696,-0.07926524937887344,13.221721969983523,7.553836008791171,0,1,0,0,1,0.3880000000000003,0.8880000000000003,0.8880000000000003,0.3880000000000003,0.0,0.5520000000000014,0.5520000000000014,0.0,2,floor<->FL|floor<->RR
195,0.3920000000000003,0.30824077170220493,0.03751994499033978,0.015338285619684982,-0.08121373997458796,13.025056569902203,5.483071015233518,0,1,0,0,1,0.3900000000000003,0.8900000000000003,0.8900000000000003,0.3900000000000003,0.0,0.5600000000000014,0.5600000000000014,0.0,2,floor<->FL|floor<->RR
196,0.3940000000000003,0.3085435597845108,0.03739997372587777,0.015214264253677261,-0.08302418118565293,11.32526759910956,5.575733399688227,0,1,0,0,1,0.3920000000000003,0.8920000000000003,0.8920000000000003,0.3920000000000003,0.0,0.5680000000000014,0.5680000000000014,0.0,2,floor<->FL|floor<->RR
197,0.3960000000000003,0.30882068665428747,0.04140132016852974,0.015268397566216322,-0.08503621888871649,13.976309396813237,5.653385682936135,0,1,0,0,1,0.3940000000000003,0.8940000000000003,0.8940000000000003,0.3940000000000003,0.0,0.5760000000000014,0.5760000000000014,0.0,2,floor<->FL|floor<->RR
198,0.3980000000000003,0.30907746745606557,0.04146701422490293,0.015295759834707143,-0.08685047854674147,11.018848363811896,5.3978029013972915,0,1,0,0,1,0.3960000000000003,0.8960000000000004,0.8960000000000004,0.3960000000000003,0.0,0.5840000000000014,0.5840000000000014,0.0,2,floor<->FL|floor<->RR
199,0.4000000000000003,0.3092991471427634,0.04562416121289213,0.015481436561654523,-0.088871905780608,14.901383535709332,7.219279282268563,0,1,0,0,1,0.3980000000000003,0.8980000000000004,0.8980000000000004,0.3980000000000003,0.0,0.5920000000000014,0.5920000000000014,0.0,2,floor<->FL|floor<->RR
200,0.4020000000000003,0.3094981409262212,0.045212066094668865,0.015754193673468572,-0.09071478227446833,10.535436451318395,5.395585714610927,0,1,0,0,1,0.4000000000000003,0.9000000000000004,0.9000000000000004,0.4000000000000003,0.0,0.6000000000000014,0.6000000000000014,0.0,2,floor<->FL|floor<->RR
201,0.4040000000000003,0.3097001322096841,0.049576828006086926,0.015484081226735495,-0.09259844780737017,14.714359246031586,5.842900540982408,0,1,0,0,1,0.4020000000000003,0.9020000000000004,0.9020000000000004,0.4020000000000003,0.0,0.6080000000000014,0.6080000000000014,0.0,2,floor<->FL|floor<->RR
202,0.4060000000000003,0.3098065420674767,0.04901378886267538,0.01580543714386889,-0.09445620511115109,11.498641336313934,5.488179225245247,0,1,0,0,1,0.4040000000000003,0.9040000000000004,0.9040000000000004,0.4040000000000003,0.0,0.6160000000000014,0.6160000000000014,0.0,2,floor<->FL|floor<->RR
203,0.4080000000000003,0.30993506746507293,0.053191938571183144,0.015587523597268867,-0.09635456678310256,14.09823092268886,5.6351342956342725,0,1,0,0,1,0.4060000000000003,0.9060000000000004,0.9060000000000004,0.4060000000000003,0.0,0.6240000000000014,0.6240000000000014,0.0,2,floor<->FL|floor<->RR
