step,time,base_z,roll,pitch,yaw,torque_norm,torque_max_abs,torque_saturation,FR_contact_cmd,FL_contact_cmd,RR_contact_cmd,RL_contact_cmd,FR_phase,FL_phase,RR_phase,RL_phase,FR_swing_phase,FL_swing_phase,RR_swing_phase,RL_swing_phase,n_contact,contact_pairs
0,0.002,0.28480584648330304,-1.2181847323743971e-05,0.0004242126275728479,-3.0238710475573553e-07,0.0,0.0,0,1,1,1,1,0.0,0.5,0.5,0.0,0.0,0.0,0.0,0.0,4,floor<->FR|floor<->FL|floor<->RR|floor<->RL
1,0.004,0.2848843983182138,8.971161359116671e-05,0.000341403964885978,-1.354665574343097e-05,19.15557883662364,8.302302663469831,0,1,1,1,1,0.0033333333333333335,0.5033333333333333,0.5033333333333333,0.0033333333333333335,0.0,0.0,0.0,0.0,4,floor<->FR|floor<->FL|floor<->RR|floor<->RL
2,0.006,0.2848733529718181,0.00017092781463197413,0.0006613098262259025,-2.6001666445633228e-05,9.03318201842595,4.3035347681947345,0,1,1,1,1,0.006666666666666667,0.5066666666666667,0.5066666666666667,0.006666666666666667,0.0,0.0,0.0,0.0,4,floor<->FR|floor<->FL|floor<->RR|floor<->RL
3,0.008,0.28489355815814943,-0.0015782551106954146,0.0006744572448812033,0.00018474950944613792,15.287812448692849,6.433635124451025,0,1,1,1,1,0.01,0.51,0.51,0.01,0.0,0.0,0.0,0.0,4,floor<->FR|floor<->FL|floor<->RR|floor<->RL
4,0.01,0.28473293996083365,-0.0011332520272061886,0.0009999969282950022,0.00013675469280118277,10.30058756937837,5.3076804896076615,0,1,1,1,1,0.013333333333333334,0.5133333333333333,0.5133333333333333,0.013333333333333334,0.0,0.0,0.0,0.0,4,floor<->FR|floor<->FL|floor<->RR|floor<->RL
5,0.012,0.28468579026869467,0.0008761521136508419,0.0006451755610943119,-0.0001560200109640143,12.91692635435155,5.219274541283036,0,1,1,1,1,0.016666666666666666,0.5166666666666667,0.5166666666666667,0.016666666666666666,0.0,0.0,0.0,0.0,4,floor<->FR|floor<->FL|floor<->RR|floor<->RL
6,0.014,0.28452218053564954,0.0006154338056598123,0.0008922017377861107,-0.0001932999483909062,13.02693452592352,5.341817035499438,0,1,1,1,1,0.02,0.52,0.52,0.02,0.0,0.0,0.0,0.0,4,floor<->FR|floor<->FL|floor<->RR|floor<->RL
7,0.016,0.28443196932679937,0.001882902006922853,0.0008567951778770016,-3.505644858011269e-05,11.050611486806588,4.125286311716445,0,1,1,1,1,0.023333333333333334,0.5233333333333333,0.5233333333333333,0.023333333333333334,0.0,0.0,0.0,0.0,4,floor<->FR|floor<->FL|floor<->RR|floor<->RL
8,0.018000000000000002,0.2842264230135582,0.0008973770566359981,0.0010950034072252088,-9.770953306855349e-05,14.091476378405906,6.033060005834674,0,1,1,1,1,0.02666666666666667,0.5266666666666666,0.5266666666666666,0.02666666666666667,0.0,0.0,0.0,0.0,4,floor<->FR|floor<->FL|floor<->RR|floor<->RL
9,0.020000000000000004,0.28409277755135764,0.0035357865112258836,0.0008553536407886736,-0.0002506376581963042,10.030153236597869,4.078206247979847,0,1,1,1,1,0.030000000000000006,0.53,0.53,0.030000000000000006,0.0,0.0,0.0,0.0,4,floor<->FR|floor<->FL|floor<->RR|floor<->RL
10,0.022000000000000006,0.28381130437808877,0.0017413602227400891,0.0010673425180165858,-0.00035828993189622596,16.928613873163666,6.555771511564485,0,1,1,1,1,0.03333333333333334,0.5333333333333333,0.5333333333333333,0.03333333333333334,0.0,0.0,0.0,0.0,4,floor<->FR|floor<->FL|floor<->RR|floor<->RL
11,0.024000000000000007,0.2836297091927252,0.004031416976870234,0.0006362069648178769,-0.000559788300427889,9.475476277110706,4.26025488120574,0,1,1,1,1,0.03666666666666668,0.5366666666666666,0.5366666666666666,0.03666666666666668,0.0,0.0,0.0,0.0,4,floor<->FR|floor<->FL|floor<->RR|floor<->RL
12,0.02600000000000001,0.2833174369043823,0.001875753280346031,0.0006643237352892437,-0.000717247408145479,16.38549664603436,6.888000637305901,0,1,1,1,1,0.040000000000000015,0.54,0.54,0.040000000000000015,0.0,0.0,0.0,0.0,4,floor<->FR|floor<->FL|floor<->RR|floor<->RL
13,0.02800000000000001,0.28310607243497354,0.003316968896097454,0.00021518535895063528,-0.0009665846645460029,11.71262721530117,7.189734701408192,0,1,1,1,1,0.04333333333333335,0.5433333333333333,0.5433333333333333,0.04333333333333335,0.0,0.0,0.0,0.0,4,floor<->FR|floor<->FL|floor<->RR|floor<->RL
14,0.030000000000000013,0.2827644293534023,0.0003466336829991446,0.00020081846745840596,-0.0011866153196600094,15.18107939138404,6.878109533325763,0,1,1,1,1,0.04666666666666669,0.5466666666666666,0.5466666666666666,0.04666666666666669,0.0,0.0,0.0,0.0,4,floor<->FR|floor<->FL|floor<->RR|floor<->RL
15,0.032000000000000015,0.282532529812843,-0.0006721800566022951,-0.00010181355822900027,-0.0016224690810884962,11.3931883959721,5.477720092802981,0,1,1,1,1,0.050000000000000024,0.55,0.55,0.050000000000000024,0.0,0.0,0.0,0.0,4,floor<->FR|floor<->FL|floor<->RR|floor<->RL
16,0.034000000000000016,0.2821205150228427,-0.003479049204331941,3.35817029424145e-07,-0.001728188574913145,13.712435313486807,6.88078785357476,0,1,1,1,1,0.05333333333333336,0.5533333333333333,0.5533333333333333,0.05333333333333336,0.0,0.0,0.0,0.0,4,floor<->FR|floor<->FL|floor<->RR|floor<->RL
17,0.03600000000000002,0.2818400067186553,-0.006155614133048809,-0.00041418556776266145,-0.0014408529848158314,9.681343853178506,4.595445482902251,0,1,1,1,1,0.0566666666666667,0.5566666666666666,0.5566666666666666,0.0566666666666667,0.0,0.0,0.0,0.0,4,floor<->FR|floor<->FL|floor<->RR|floor<->RL
18,0.03800000000000002,0.2814201566911642,-0.008517481868005931,-0.0004446965509822019,-0.0016316477946298296,14.54833664305795,7.478900179673542,0,1,1,1,1,0.06000000000000003,0.56,0.56,0.06000000000000003,0.0,0.0,0.0,0.0,4,floor<->FR|floor<->FL|floor<->RR|floor<->RL
19,0.04000000000000002,0.28110998169909557,-0.010287633785653649,-0.0009575222800110258,-0.0019819724546839067,8.75151399296175,4.8378994948543195,0,1,1,1,1,0.06333333333333337,0.5633333333333334,0.5633333333333334,0.06333333333333337,0.0,0.0,0.0,0.0,4,floor<->FR|floor<->FL|floor<->RR|floor<->RL
20,0.04200000000000002,0.2807560602019363,-0.012688039722596158,-0.0010241656902394492,-0.002328680813247488,10.783576072455533,6.677043231394195,0,1,1,1,1,0.06666666666666671,0.5666666666666667,0.5666666666666667,0.06666666666666671,0.0,0.0,0.0,0.0,4,floor<->FR|floor<->FL|floor<->RR|floor<->RL
21,0.044000000000000025,0.2804565376582731,-0.012541172834108228,-0.0016814967290844794,-0.002928431920847248,13.45586570131755,6.917411079821031,0,1,1,1,1,0.07000000000000005,0.5700000000000001,0.5700000000000001,0.07000000000000005,0.0,0.0,0.0,0.0,4,floor<->FR|floor<->FL|floor<->RR|floor<->RL
22,0.04600000000000003,0.28006612111191087,-0.016557982147533113,-0.0016973890813784087,-0.003446667278326574,12.669515358841423,6.6825694286482085,0,1,1,1,1,0.07333333333333338,0.5733333333333334,0.5733333333333334,0.07333333333333338,0.0,0.0,0.0,0.0,4,floor<->FR|floor<->FL|floor<->RR|floor<->RL
23,0.04800000000000003,0.2798282165061146,-0.016853874705899875,-0.0021992065195324067,-0.0039419504904070375,11.577781557517023,5.467101154940923,0,1,1,1,1,0.07666666666666672,0.5766666666666667,0.5766666666666667,0.07666666666666672,0.0,0.0,0.0,0.0,4,floor<->FR|floor<->FL|floor<->RR|floor<->RL
24,0.05000000000000003,0.27944996966465846,-0.021135309298620508,-0.002031292100920867,-0.004342561381955837,13.374945122711049,6.889389373597452,0,1,1,1,1,0.08000000000000006,0.5800000000000001,0.5800000000000001,0.08000000000000006,0.0,0.0,0.0,0.0,4,floor<->FR|floor<->FL|floor<->RR|floor<->RL
25,0.05200000000000003,0.2792409955359025,-0.021001843220029865,-0.002793531143972248,-0.004871443539533621,9.915309998126332,5.601853666436612,0,1,1,1,1,0.08333333333333338,0.5833333333333334,0.5833333333333334,0.08333333333333338,0.0,0.0,0.0,0.0,4,floor<->FR|floor<->FL|floor<->RR|floor<->RL
26,0.054000000000000034,0.27892445875805305,-0.025453414750157374,-0.002486551943915597,-0.005250528434515774,15.655099765997749,7.120092503911059,0,1,1,1,1,0.08666666666666673,0.5866666666666667,0.5866666666666667,0.08666666666666673,0.0,0.0,0.0,0.0,4,floor<->FR|floor<->FL|floor<->RR|floor<->RL
27,0.056000000000000036,0.27869130513893153,-0.025917583453408055,-0.0020099453229714638,-0.005076216211764683,12.323790298383647,6.624118139038984,0,1,1,1,1,0.09000000000000007,0.5900000000000001,0.5900000000000001,0.09000000000000007,0.0,0.0,0.0,0.0,4,floor<->FR|floor<->FL|floor<->RR|floor<->RL
28,0.05800000000000004,0.27847853195709515,-0.03030854040662539,-0.0016990019345593486,-0.004956902120768712,11.588695240929862,7.177672904256694,0,1,1,1,1,0.0933333333333334,0.5933333333333334,0.5933333333333334,0.0933333333333334,0.0,0.0,0.0,0.0,4,floor<->FR|floor<->FL|floor<->RR|floor<->RL
29,0.06000000000000004,0.2783988668323804,-0.029871764807196395,-0.002229413583993799,-0.004801473594898869,9.703991569441465,5.428527372604815,0,1,1,1,1,0.09666666666666673,0.5966666666666667,0.5966666666666667,0.09666666666666673,0.0,0.0,0.0,0.0,4,floor<->FR|floor<->FL|floor<->RR|floor<->RL
30,0.06200000000000004,0.2782644274057836,-0.03274385655822228,-0.0017401795114840102,-0.004645251680664111,12.438443814873004,7.5752443181591005,0,1,0,0,1,0.10000000000000007,0.6000000000000001,0.6000000000000001,0.10000000000000007,0.0,2.7755575615628914e-16,2.7755575615628914e-16,0.0,4,floor<->FR|floor<->FL|floor<->RR|floor<->RL
31,0.06400000000000004,0.2782865662738255,-0.03151561807071322,-0.002340167126817798,-0.004440273735493908,8.972789020715359,5.100357445267059,0,1,0,0,1,0.1033333333333334,0.6033333333333334,0.6033333333333334,0.1033333333333334,0.0,0.008333333333333526,0.008333333333333526,0.0,4,floor<->FR|floor<->FL|floor<->RR|floor<->RL
32,0.06600000000000004,0.27827575339776295,-0.03344611463733797,-0.001724690867798263,-0.003986362218069154,13.305315122862952,5.694004053782868,0,1,0,0,1,0.10666666666666674,0.6066666666666667,0.6066666666666667,0.10666666666666674,0.0,0.016666666666666774,0.016666666666666774,0.0,4,floor<->FR|floor<->FL|floor<->RR|floor<->RL
33,0.06800000000000005,0.27828915238310836,-0.03287480815688669,-0.001005298389292688,-0.003227504857735348,11.209813975866469,6.824212406442105,0,1,0,0,1,0.11000000000000008,0.6100000000000001,0.6100000000000001,0.11000000000000008,0.0,0.0250000000000003,0.0250000000000003,0.0,4,floor<->FR|floor<->FL|floor<->RR|floor<->RL
34,0.07000000000000005,0.27838968387492513,-0.03433092981736264,-0.0010228906064251222,-0.002387250724911046,9.783309999728766,6.077359261720918,0,1,0,0,1,0.11333333333333341,0.6133333333333334,0.6133333333333334,0.11333333333333341,0.0,0.03333333333333355,0.03333333333333355,0.0,4,floor<->FR|floor<->FL|floor<->RR|floor<->RL
35,0.07200000000000005,0.2785088563971638,-0.03115386568865533,-0.0010891216706282486,-0.0017153192712129237,14.002916328531281,8.511835796581856,0,1,0,0,1,0.11666666666666675,0.6166666666666667,0.6166666666666667,0.11666666666666675,0.0,0.041666666666666796,0.041666666666666796,0.0,4,floor<->FR|floor<->FL|floor<->RR|floor<->RL
36,0.07400000000000005,0.2787257120105121,-0.031943724479472246,-0.002108431557159023,-0.001114721928393359,8.854384716504155,4.5868887628715,0,1,0,0,1,0.12000000000000009,0.6200000000000001,0.6200000000000001,0.12000000000000009,0.0,0.05000000000000032,0.05000000000000032,0.0,4,floor<->FR|floor<->FL|floor<->RR|floor<->RL
37,0.07600000000000005,0.2789077077832584,-0.027393831476705845,-0.0026156381901798137,-0.0004520054273576244,13.13774576449612,7.0680325208027055,0,1,0,0,1,0.12333333333333342,0.6233333333333334,0.6233333333333334,0.12333333333333342,0.0,0.05833333333333357,0.05833333333333357,0.0,4,floor<->FR|floor<->FL|floor<->RR|floor<->RL
38,0.07800000000000006,0.279183501970681,-0.026519165465734688,-0.00264981329180127,0.00019013523739640955,10.904061650792267,6.303840595537457,0,1,0,0,1,0.12666666666666676,0.6266666666666667,0.6266666666666667,0.12666666666666676,0.0,0.06666666666666682,0.06666666666666682,0.0,4,floor<->FR|floor<->FL|floor<->RR|floor<->RL
39,0.08000000000000006,0.2795501568680357,-0.023973934654967895,-0.0032723310277597644,0.0009892041175926319,10.459740918439714,6.755355367718681,0,1,0,0,1,0.1300000000000001,0.6300000000000001,0.6300000000000001,0.1300000000000001,0.0,0.07500000000000034,0.07500000000000034,0.0,4,floor<->FR|floor<->FL|floor<->RR|floor<->RL
40,0.08200000000000006,0.2799513719397208,-0.023940120081406318,-0.0038704838445403587,0.002004989677959519,9.702776039650503,6.220829463003973,0,1,0,0,1,0.13333333333333344,0.6333333333333334,0.6333333333333334,0.13333333333333344,0.0,0.08333333333333359,0.08333333333333359,0.0,4,floor<->FR|floor<->FL|floor<->RR|floor<->RL
41,0.08400000000000006,0.2804078689669307,-0.02148396414503668,-0.003965397075445863,0.0031509333141327305,15.619915500198317,8.913320107017876,0,1,0,0,1,0.13666666666666677,0.6366666666666667,0.6366666666666667,0.13666666666666677,0.0,0.09166666666666684,0.09166666666666684,0.0,4,floor<->FR|floor<->FL|floor<->RR|floor<->RL
42,0.08600000000000006,0.2809717205933961,-0.01926130943857028,-0.004433736199931157,0.0038578982214151985,9.179924370074184,4.752831082199945,0,1,0,0,1,0.1400000000000001,0.6400000000000001,0.6400000000000001,0.1400000000000001,0.0,0.10000000000000037,0.10000000000000037,0.0,4,floor<->FR|floor<->FL|floor<->RR|floor<->RL
43,0.08800000000000006,0.28148167647021943,-0.014857191821781173,-0.00497737706391147,0.004629462941086289,8.332792008569207,6.067918106813273,0,1,0,0,1,0.14333333333333345,0.6433333333333334,0.6433333333333334,0.14333333333333345,0.0,0.10833333333333361,0.10833333333333361,0.0,4,floor<->FR|floor<->FL|floor<->RR|floor<->RL
44,0.09000000000000007,0.282133598782037,-0.01463735304172033,-0.005623255852751789,0.005198498030811352,6.883491763506494,3.0841697481910586,0,1,0,0,1,0.14666666666666678,0.6466666666666667,0.6466666666666667,0.14666666666666678,0.0,0.11666666666666686,0.11666666666666686,0.0,4,floor<->FR|floor<->FL|floor<->RR|floor<->RL
45,0.09200000000000007,0.2828321410095116,-0.009009465784794436,-0.006446288067023726,0.00591683463607404,13.36875386289585,7.301181865438094,0,1,0,0,1,0.1500000000000001,0.6500000000000001,0.6500000000000001,0.1500000000000001,0.0,0.1250000000000004,0.1250000000000004,0.0,4,floor<->FR|floor<->FL|floor<->RR|floor<->RL
46,0.09400000000000007,0.2835751830845927,-0.007703845506957825,-0.007275130224747673,0.006309320102541335,12.798940579605375,8.77539518627264,0,1,0,0,1,0.15333333333333346,0.6533333333333334,0.6533333333333334,0.15333333333333346,0.0,0.13333333333333364,0.13333333333333364,0.0,4,floor<->FR|floor<->FL|floor<->RR|floor<->RL
47,0.09600000000000007,0.2843780777281689,-0.003161246017430195,-0.007417044083473272,0.006594213368123635,12.650703926951401,7.247777203631628,0,1,0,0,1,0.1566666666666668,0.6566666666666667,0.6566666666666667,0.1566666666666668,0.0,0.14166666666666689,0.14166666666666689,0.0,4,floor<->FR|floor<->FL|floor<->RR|floor<->RL
48,0.09800000000000007,0.28529941588849145,-0.0010008637660033255,-0.007484249153665676,0.006662074417890422,10.488404181115289,4.940822067625146,0,1,0,0,1,0.16000000000000011,0.6600000000000001,0.6600000000000001,0.16000000000000011,0.0,0.1500000000000004,0.1500000000000004,0.0,4,floor<->FR|floor<->FL|floor<->RR|floor<->RL
49,0.10000000000000007,0.2862407721471826,0.0018103514532029942,-0.0072750482251736585,0.006641338956416505,7.193366867813226,5.697526268272678,0,1,0,0,1,0.16333333333333347,0.6633333333333334,0.6633333333333334,0.16333333333333347,0.0,0.15833333333333366,0.15833333333333366,0.0,3,floor<->FL|floor<->RR|floor<->RL
50,0.10200000000000008,0.2873173372392455,0.0008547661123792552,-0.007131502812000999,0.006677659864089084,7.993355198796446,4.563906825358761,0,1,0,0,1,0.1666666666666668,0.6666666666666667,0.6666666666666667,0.1666666666666668,0.0,0.1666666666666669,0.1666666666666669,0.0,3,floor<->FL|floor<->RR|floor<->RL
51,0.10400000000000008,0.28844728931373526,0.004414674912586637,-0.007305165073529651,0.006660785192472197,11.339082278486604,5.840812697510637,0,1,0,0,1,0.17000000000000012,0.6700000000000002,0.6700000000000002,0.17000000000000012,0.0,0.17500000000000043,0.17500000000000043,0.0,3,floor<->FL|floor<->RR|floor<->RL
52,0.10600000000000008,0.2896665326402515,0.003687211022224396,-0.007194534601372639,0.006480866717497459,8.836345754610795,4.454851751915645,0,1,0,0,1,0.17333333333333348,0.6733333333333335,0.6733333333333335,0.17333333333333348,0.0,0.18333333333333368,0.18333333333333368,0.0,2,floor<->FL|floor<->RR
53,0.10800000000000008,0.29093779330997344,0.007245369512411518,-0.006985335324829533,0.006130446716375233,11.248726393089614,6.319205962592845,0,1,0,0,1,0.1766666666666668,0.6766666666666667,0.6766666666666667,0.1766666666666668,0.0,0.19166666666666693,0.19166666666666693,0.0,2,floor<->FL|floor<->RR
54,0.11000000000000008,0.2923177739619163,0.006481483569788064,-0.006699319389415166,0.0056082878944000315,9.440666885084163,4.857798538157537,0,1,0,0,1,0.18000000000000013,0.6800000000000002,0.6800000000000002,0.18000000000000013,0.0,0.20000000000000046,0.20000000000000046,0.0,2,floor<->FL|floor<->RR
55,0.11200000000000009,0.2937247842600595,0.010147360512778762,-0.006726743295649721,0.005036893991257503,11.591938903488627,6.916193555585253,0,1,0,0,1,0.1833333333333335,0.6833333333333335,0.6833333333333335,0.1833333333333335,0.0,0.2083333333333337,0.2083333333333337,0.0,2,floor<->FL|floor<->RR
56,0.11400000000000009,0.2952162934322787,0.009417986306199373,-0.006545237927277057,0.004265851473708985,10.137459243111314,5.342358494655761,0,1,0,0,1,0.18666666666666681,0.6866666666666668,0.6866666666666668,0.18666666666666681,0.0,0.21666666666666695,0.21666666666666695,0.0,2,floor<->FL|floor<->RR
57,0.11600000000000009,0.2967405215690439,0.01308800855628471,-0.006625583912210738,0.0034353903109883123,11.95323569444849,7.513701005423933,0,1,0,0,1,0.19000000000000014,0.6900000000000002,0.6900000000000002,0.19000000000000014,0.0,0.22500000000000048,0.22500000000000048,0.0,2,floor<->FL|floor<->RR
58,0.11800000000000009,0.2983480159493896,0.014771735351266111,-0.0059553046747132885,0.0028092548797545073,10.851760654030521,5.967589320841256,0,1,0,0,1,0.1933333333333335,0.6933333333333335,0.6933333333333335,0.1933333333333335,0.0,0.23333333333333373,0.23333333333333373,0.0,2,floor<->FL|floor<->RR
59,0.12000000000000009,0.29992477444720217,0.014054387881284281,-0.00582887527183658,0.002300990247742553,13.979577684508685,10.252076544419294,0,1,0,0,1,0.19666666666666682,0.6966666666666668,0.6966666666666668,0.19666666666666682,0.0,0.24166666666666697,0.24166666666666697,0.0,2,floor<->FL|floor<->RR
60,0.1220000000000001,0.301555807920348,0.016084143336103182,-0.005057921511486692,0.0015538846271431759,12.812508724513204,7.022819535779668,0,1,0,0,1,0.20000000000000015,0.7000000000000002,0.7000000000000002,0.20000000000000015,0.0,0.2500000000000005,0.2500000000000005,0.0,2,floor<->FL|floor<->RR
61,0.1240000000000001,0.30327613719816476,0.015595848996746407,-0.004789443050133347,0.0009395640914352317,9.324766583802857,5.509026927512765,0,1,0,0,1,0.2033333333333335,0.7033333333333335,0.7033333333333335,0.2033333333333335,0.0,0.25833333333333375,0.25833333333333375,0.0,2,floor<->FL|floor<->RR
62,0.12600000000000008,0.3050328187018742,0.017706514970468174,-0.004496217415414781,5.163042785202273e-05,9.636372486352947,5.344204261069878,0,1,0,0,1,0.20666666666666683,0.7066666666666668,0.7066666666666668,0.20666666666666683,0.0,0.266666666666667,0.266666666666667,0.0,2,floor<->FL|floor<->RR
63,0.12800000000000009,0.3068282727086087,0.01724292891793618,-0.004646599775333464,-0.0007055810771715965,8.652854636928936,5.484019811320615,0,1,0,0,1,0.21000000000000016,0.7100000000000002,0.7100000000000002,0.21000000000000016,0.0,0.2750000000000005,0.2750000000000005,0.0,2,floor<->FL|floor<->RR
64,0.1300000000000001,0.3086564220127462,0.01969351602376391,-0.003843372728894882,-0.001673234857295961,10.337459381292994,5.195337385059048,0,1,0,0,1,0.21333333333333349,0.7133333333333335,0.7133333333333335,0.21333333333333349,0.0,0.28333333333333377,0.28333333333333377,0.0,2,floor<->FL|floor<->RR
65,0.1320000000000001,0.3104727344908274,0.017749156819085447,-0.003688634878650239,-0.002647600860107188,13.652106869513592,8.417956272781769,0,1,0,0,1,0.2166666666666668,0.7166666666666668,0.7166666666666668,0.2166666666666668,0.0,0.291666666666667,0.291666666666667,0.0,2,floor<->FL|floor<->RR
66,0.1340000000000001,0.31235380689799525,0.02053645500742707,-0.003390118466167879,-0.003484546352972231,10.74990714585951,5.259622710627847,0,1,0,0,1,0.22000000000000017,0.7200000000000002,0.7200000000000002,0.22000000000000017,0.0,0.30000000000000054,0.30000000000000054,0.0,2,floor<->FL|floor<->RR
67,0.1360000000000001,0.3142288898114145,0.017951320637873854,-0.0028032717504935176,-0.004528752738282208,9.940732476850053,5.039646253310559,0,1,0,0,1,0.2233333333333335,0.7233333333333335,0.7233333333333335,0.2233333333333335,0.0,0.3083333333333338,0.3083333333333338,0.0,2,floor<->FL|floor<->RR
68,0.1380000000000001,0.3161178088057596,0.0206228741939019,-0.002391124064830362,-0.005398415745813141,15.236765911083062,9.670184788318705,0,1,0,0,1,0.22666666666666682,0.7266666666666668,0.7266666666666668,0.22666666666666682,0.0,0.31666666666666704,0.31666666666666704,0.0,2,floor<->FL|floor<->RR
69,0.1400000000000001,0.31793051966876523,0.018511831807631312,-0.0018920712420391996,-0.006461154134133439,14.301983671777796,10.000769495249408,0,1,0,0,1,0.23000000000000018,0.7300000000000002,0.7300000000000002,0.23000000000000018,0.0,0.32500000000000057,0.32500000000000057,0.0,2,floor<->FL|floor<->RR
70,0.1420000000000001,0.3198225214536866,0.020073850712472575,-0.0005584481826508686,-0.007645597237476484,12.066550066425995,5.427224230124688,0,1,0,0,1,0.2333333333333335,0.7333333333333335,0.7333333333333335,0.2333333333333335,0.0,0.3333333333333338,0.3333333333333338,0.0,2,floor<->FL|floor<->RR
71,0.1440000000000001,0.32167584735824617,0.017458937951325817,8.029225812271329e-05,-0.00874760044203044,13.83102947605482,9.188377809226495,0,1,0,0,1,0.23666666666666683,0.7366666666666668,0.7366666666666668,0.23666666666666683,0.0,0.34166666666666706,0.34166666666666706,0.0,2,floor<->FL|floor<->RR
72,0.1460000000000001,0.3235603597067264,0.019240538766761704,0.000562754627916445,-0.009858628301305175,9.415589427874671,4.6507379035660295,0,1,0,0,1,0.24000000000000019,0.7400000000000002,0.7400000000000002,0.24000000000000019,0.0,0.3500000000000006,0.3500000000000006,0.0,2,floor<->FL|floor<->RR
73,0.1480000000000001,0.325409428718243,0.016159342817695585,0.0013516365750313598,-0.011011418318265912,10.265912323454131,5.71946569297286,0,1,0,0,1,0.2433333333333335,0.7433333333333335,0.7433333333333335,0.2433333333333335,0.0,0.35833333333333384,0.35833333333333384,0.0,2,floor<->FL|floor<->RR
74,0.1500000000000001,0.32726319106649104,0.018193334382164812,0.0020026068803402535,-0.012002640647118144,13.902205571192884,7.581192628697522,0,1,0,0,1,0.24666666666666684,0.7466666666666668,0.7466666666666668,0.24666666666666684,0.0,0.3666666666666671,0.3666666666666671,0.0,2,floor<->FL|floor<->RR
75,0.1520000000000001,0.3290328803992625,0.015498068335600636,0.002418952506930387,-0.013240936544237594,12.906495676327951,6.632198418759753,0,1,0,0,1,0.25000000000000017,0.7500000000000002,0.7500000000000002,0.25000000000000017,0.0,0.3750000000000006,0.3750000000000006,0.0,2,floor<->FL|floor<->RR
76,0.1540000000000001,0.33083488575800335,0.016640477782300617,0.003028762671919511,-0.014417817884433108,10.882366833022447,4.815942284788405,0,1,0,0,1,0.2533333333333335,0.7533333333333335,0.7533333333333335,0.2533333333333335,0.0,0.38333333333333386,0.38333333333333386,0.0,2,floor<->FL|floor<->RR
77,0.1560000000000001,0.33256018066726956,0.013925961513596383,0.0034672850516672448,-0.015665882642749804,12.781442896409953,7.534978410311773,0,1,0,0,1,0.2566666666666669,0.7566666666666668,0.7566666666666668,0.2566666666666669,0.0,0.3916666666666671,0.3916666666666671,0.0,2,floor<->FL|floor<->RR
78,0.1580000000000001,0.3342946128539503,0.015520737000779848,0.003759059946661261,-0.016900146376565183,12.00483983441335,6.69135127208537,0,1,0,0,1,0.2600000000000002,0.7600000000000002,0.7600000000000002,0.2600000000000002,0.0,0.40000000000000063,0.40000000000000063,0.0,2,floor<->FL|floor<->RR
79,0.16000000000000011,0.33597908817706146,0.012297004253722568,0.004343957114138508,-0.018150901718191562,11.124641315773026,5.655944422116329,0,1,0,0,1,0.26333333333333353,0.7633333333333335,0.7633333333333335,0.26333333333333353,0.0,0.4083333333333339,0.4083333333333339,0.0,2,floor<->FL|floor<->RR
80,0.16200000000000012,0.3376688967314449,0.014103284726062901,0.004811051870720447,-0.01924145930210161,12.853647068097189,5.151404957212055,0,1,0,0,1,0.2666666666666669,0.7666666666666668,0.7666666666666668,0.2666666666666669,0.0,0.41666666666666713,0.41666666666666713,0.0,2,floor<->FL|floor<->RR
81,0.16400000000000012,0.33927453974335037,0.010893668165937976,0.0053284909225582815,-0.02048090696769921,13.070544443287377,6.734747781833166,0,1,0,0,1,0.2700000000000002,0.7700000000000002,0.7700000000000002,0.2700000000000002,0.0,0.42500000000000066,0.42500000000000066,0.0,2,floor<->FL|floor<->RR
82,0.16600000000000012,0.34087137841765686,0.012684889396821655,0.0057418174998096925,-0.021564868663513793,13.172079799756352,7.503380772031635,0,1,0,0,1,0.27333333333333354,0.7733333333333335,0.7733333333333335,0.27333333333333354,0.0,0.4333333333333339,0.4333333333333339,0.0,2,floor<->FL|floor<->RR
83,0.16800000000000012,0.342387877727496,0.00962086097788913,0.006111882352008974,-0.02281589137011483,13.88141523145141,9.299992453174202,0,1,0,0,1,0.2766666666666669,0.7766666666666668,0.7766666666666668,0.2766666666666669,0.0,0.44166666666666715,0.44166666666666715,0.0,2,floor<->FL|floor<->RR
84,0.17000000000000012,0.3439062091341396,0.011130705287151852,0.006488195017251278,-0.023922842007492954,11.127781371432611,5.041654849929811,0,1,0,0,1,0.2800000000000002,0.7800000000000002,0.7800000000000002,0.2800000000000002,0.0,0.4500000000000007,0.4500000000000007,0.0,2,floor<->FL|floor<->RR
85,0.17200000000000013,0.3453739344893619,0.008135232528855348,0.0068183064170744805,-0.02515318450535256,12.330870809213462,5.659060145551358,0,1,0,0,1,0.28333333333333355,0.7833333333333335,0.7833333333333335,0.28333333333333355,0.0,0.4583333333333339,0.4583333333333339,0.0,2,floor<->FL|floor<->RR
86,0.17400000000000013,0.34679979672453354,0.009694628837279975,0.007160543619117421,-0.02624498488708114,12.762956723105624,6.596137014102657,0,1,0,0,1,0.2866666666666669,0.7866666666666668,0.7866666666666668,0.2866666666666669,0.0,0.4666666666666672,0.4666666666666672,0.0,0,
87,0.17600000000000013,0.3481770094577859,0.006738003353613282,0.007465346365879925,-0.027464803819309918,10.492461629353473,5.133421736891996,0,1,0,0,1,0.2900000000000002,0.7900000000000003,0.7900000000000003,0.2900000000000002,0.0,0.4750000000000007,0.4750000000000007,0.0,0,
88,0.17800000000000013,0.34951535401510525,0.008129251891599847,0.008203366547741309,-0.02869332632522956,14.30294077191054,8.113762560457278,0,1,0,0,1,0.29333333333333356,0.7933333333333336,0.7933333333333336,0.29333333333333356,0.0,0.48333333333333395,0.48333333333333395,0.0,0,
89,0.18000000000000013,0.350823518027302,0.005380517078998844,0.008312969370511777,-0.029910872699187692,11.675642766522413,5.278979639290635,0,1,0,0,1,0.2966666666666669,0.7966666666666669,0.7966666666666669,0.2966666666666669,0.0,0.4916666666666672,0.4916666666666672,0.0,0,
90,0.18200000000000013,0.35208529998484417,0.006931809075393435,0.008891651460472936,-0.03113996950039324,12.684915546033704,7.259484604637404,0,1,0,0,1,0.3000000000000002,0.8000000000000003,0.8000000000000003,0.3000000000000002,0.0,0.5000000000000007,0.5000000000000007,0.0,0,
91,0.18400000000000014,0.35331615209574985,0.004156421313062663,0.008990647232392065,-0.03233600479196691,12.909444723175811,6.693298304817398,0,1,0,0,1,0.30333333333333357,0.8033333333333336,0.8033333333333336,0.30333333333333357,0.0,0.508333333333334,0.508333333333334,0.0,0,
92,0.18600000000000014,0.35449020397299635,0.0056911281994381875,0.009559485979302739,-0.033547877231654054,13.914604356857584,8.166592804629216,0,1,0,0,1,0.3066666666666669,0.8066666666666669,0.8066666666666669,0.3066666666666669,0.0,0.5166666666666672,0.5166666666666672,0.0,0,
93,0.18800000000000014,0.3556353070317455,0.002886529813421939,0.00965294547548216,-0.034729274418024425,11.773913347806184,5.251585661498567,0,1,0,0,1,0.3100000000000002,0.8100000000000003,0.8100000000000003,0.3100000000000002,0.0,0.5250000000000007,0.5250000000000007,0.0,0,
94,0.19000000000000014,0.3567268028856698,0.00440218850362575,0.010214987927858498,-0.035928960030026935,14.19041642696394,7.744551497928473,0,1,0,0,1,0.3133333333333336,0.8133333333333336,0.8133333333333336,0.3133333333333336,0.0,0.533333333333334,0.533333333333334,0.0,0,
95,0.19200000000000014,0.3577901485631688,0.0016030013335072753,0.010297501574351617,-0.03709829270357695,11.456692729437775,5.255684597981035,0,1,0,0,1,0.31666666666666693,0.8166666666666669,0.8166666666666669,0.31666666666666693,0.0,0.5416666666666672,0.5416666666666672,0.0,0,
96,0.19400000000000014,0.35879933292909766,0.003124967324722998,0.010850271986923225,-0.038288605615336146,14.61370917912801,8.040099226426367,0,1,0,0,1,0.32000000000000023,0.8200000000000003,0.8200000000000003,0.32000000000000023,0.0,0.5500000000000007,0.5500000000000007,0.0,0,
97,0.19600000000000015,0.3597811683035172,0.00033137782536753506,0.010925039502185513,-0.039449428588969486,11.289247531585094,5.261238688979396,0,1,0,0,1,0.3233333333333336,0.8233333333333336,0.8233333333333336,0.3233333333333336,0.0,0.558333333333334,0.558333333333334,0.0,0,
98,0.19800000000000015,0.360709605337127,0.0018592141329601265,0.011471146911760613,-0.04063324317431327,14.638021411692483,8.009297896047066,0,1,0,0,1,0.32666666666666694,0.8266666666666669,0.8266666666666669,0.32666666666666694,0.0,0.5666666666666672,0.5666666666666672,0.0,0,
99,0.20000000000000015,0.3616111498672977,-0.0009292720775480048,0.011540288559169365,-0.04178795369184936,11.37108559477687,5.265619917974253,0,1,0,0,1,0.33000000000000024,0.8300000000000003,0.8300000000000003,0.33000000000000024,0.0,0.5750000000000007,0.5750000000000007,0.0,0,
100,0.20200000000000015,0.3624597558785671,0.0006036336153838035,0.012081486386711774,-0.04296722321368409,14.379313161126912,7.748695842112065,0,1,0,0,1,0.3333333333333336,0.8333333333333336,0.8333333333333336,0.3333333333333336,0.0,0.583333333333334,0.583333333333334,0.0,0,
101,0.20400000000000015,0.3632817252304357,-0.002180503405156058,0.012146442974766867,-0.0441174703135989,11.642850968924188,5.269312777246232,0,1,0,0,1,0.33666666666666695,0.8366666666666669,0.8366666666666669,0.33666666666666695,0.0,0.5916666666666672,0.5916666666666672,0.0,0,
102,0.20600000000000016,0.36405103846419057,-0.0006434191494553762,0.012683938736576179,-0.04529354868312805,13.922289452916985,7.315471319083356,0,1,0,0,1,0.34000000000000025,0.8400000000000003,0.8400000000000003,0.34000000000000025,0.0,0.6000000000000008,0.6000000000000008,0.0,0,
103,0.20800000000000016,0.3647938538443976,-0.0034240082636354625,0.012745712853597987,-0.04644048898873226,12.087665698010069,5.272551821450613,0,1,0,0,1,0.3433333333333336,0.8433333333333336,0.8433333333333336,0.3433333333333336,0.0,0.6083333333333341,0.6083333333333341,0.0,0,
104,0.21000000000000016,0.3654841914591608,-0.001883594575851111,0.013280357013356201,-0.04761433279427738,13.330418358857957,6.743772234207862,0,1,0,0,1,0.34666666666666696,0.8466666666666669,0.8466666666666669,0.34666666666666696,0.0,0.6166666666666673,0.6166666666666673,0.0,0,
105,0.21200000000000016,0.36614810164738026,-0.004661384098979507,0.013339661504301418,-0.04875879239133406,12.704618823584681,5.275455285664543,0,1,0,0,1,0.35000000000000026,0.8500000000000003,0.8500000000000003,0.35000000000000026,0.0,0.6250000000000008,0.6250000000000008,0.0,0,
106,0.21400000000000016,0.3667596512861517,-0.00311839273583097,0.013872065086200334,-0.04993108947401767,12.65727941620916,6.054352273763865,0,1,0,0,1,0.3533333333333336,0.8533333333333336,0.8533333333333336,0.3533333333333336,0.0,0.6333333333333341,0.6333333333333341,0.0,0,
107,0.21600000000000016,0.36734480391508945,-0.005894037565451954,0.01392941642104501,-0.051073667952116104,13.4969926777495,5.962925328548305,0,1,0,0,1,0.35666666666666696,0.8566666666666669,0.8566666666666669,0.35666666666666696,0.0,0.6416666666666673,0.6416666666666673,0.0,0,
108,0.21800000000000017,0.36787767721419024,-0.004349106591339511,0.014460025919517097,-0.052244920574829046,11.956078442041669,5.260233023102121,0,1,0,0,1,0.36000000000000026,0.8600000000000003,0.8600000000000003,0.36000000000000026,0.0,0.6500000000000008,0.6500000000000008,0.0,0,
109,0.22000000000000017,0.3683841604658779,-0.007123158457324314,0.014515804267350853,-0.0533860591048659,14.46720939500094,6.790239718050039,0,1,0,0,1,0.3633333333333336,0.8633333333333336,0.8633333333333336,0.3633333333333336,0.0,0.6583333333333341,0.6583333333333341,0.0,0,
110,0.22200000000000017,0.3688384243640193,-0.005491983088325431,0.0148649175023151,-0.05449033167205264,11.287336360903359,4.768173631869678,0,1,0,0,1,0.366666666666667,0.8666666666666669,0.8666666666666669,0.366666666666667,0.0,0.6666666666666673,0.6666666666666673,0.0,0,
111,0.22400000000000017,0.36925926125960346,-0.008194871726317261,0.014765880111711769,-0.05557232446754915,14.311663494415242,7.7831604798229055,0,1,0,0,1,0.3700000000000003,0.8700000000000003,0.8700000000000003,0.3700000000000003,0.0,0.6750000000000008,0.6750000000000008,0.0,0,
112,0.22600000000000017,0.36962919689428647,-0.006590071218095763,0.01516273292755835,-0.05669229212223768,10.99074407712203,4.749911705538315,0,1,0,0,1,0.37333333333333363,0.8733333333333336,0.8733333333333336,0.37333333333333363,0.0,0.6833333333333341,0.6833333333333341,0.0,0,
113,0.22800000000000017,0.36997375566072527,-0.00931335927016034,0.015103352215535019,-0.0577874022201072,15.866311753050969,8.77106564409066,0,1,0,0,1,0.376666666666667,0.8766666666666669,0.8766666666666669,0.376666666666667,0.0,0.6916666666666673,0.6916666666666673,0.0,0,
114,0.23000000000000018,0.3702669522581707,-0.00772594199516072,0.015533843770756608,-0.058919001106716586,10.304223577967836,4.752880444237276,0,1,0,0,1,0.3800000000000003,0.8800000000000003,0.8800000000000003,0.3800000000000003,0.0,0.7000000000000008,0.7000000000000008,0.0,0,
115,0.23200000000000018,0.3705344331309543,-0.010462855175444404,0.015502614717793937,-0.06002378464374597,17.51929241720853,9.854787035334594,0,1,0,0,1,0.38333333333333364,0.8833333333333336,0.8833333333333336,0.38333333333333364,0.0,0.7083333333333341,0.7083333333333341,0.0,0,
116,0.23400000000000018,0.3707502726310572,-0.008926990788301918,0.015909140633630667,-0.061188250170613225,10.00714398080637,4.754150180759775,0,1,0,0,1,0.386666666666667,0.8866666666666669,0.8866666666666669,0.386666666666667,0.0,0.7166666666666673,0.7166666666666673,0.0,0,
117,0.23600000000000018,0.37093695856821557,-0.011706124029670016,0.01585576194162046,-0.062321617591688264,18.640558656388134,10.611023624230128,0,1,0,0,1,0.3900000000000003,0.8900000000000003,0.8900000000000003,0.3900000000000003,0.0,0.7250000000000009,0.7250000000000009,0.0,0,
118,0.23800000000000018,0.3710723974638976,-0.010056074440202801,0.015953008400560072,-0.06332324495396043,10.02476450335125,4.794694744159463,0,1,0,0,1,0.39333333333333365,0.8933333333333336,0.8933333333333336,0.39333333333333365,0.0,0.7333333333333342,0.7333333333333342,0.0,0,
119,0.24000000000000019,0.37115971945713017,-0.012932242892390913,0.016044363728921138,-0.06446725091414346,15.75596715898304,8.71469892102452,0,1,0,0,1,0.396666666666667,0.896666666666667,0.896666666666667,0.396666666666667,0.0,0.7416666666666674,0.7416666666666674,0.0,0,
120,0.2420000000000002,0.37121626759615584,-0.010896946760955217,0.01611671678546783,-0.06547824171986465,10.404608447156528,4.802475629889125,0,1,0,0,1,0.4000000000000003,0.9000000000000004,0.9000000000000004,0.4000000000000003,0.0,0.7500000000000009,0.7500000000000009,0.0,0,
121,0.2440000000000002,0.37120356412358424,-0.013860820893174223,0.016289960729002628,-0.06665410808334603,16.610716263710362,10.59839492950906,0,1,0,0,1,0.40333333333333365,0.9033333333333337,0.9033333333333337,0.40333333333333365,0.0,0.7583333333333342,0.7583333333333342,0.0,0,
122,0.2460000000000002,0.37119328033712634,-0.012242401831087405,0.016325090401824054,-0.06778312491841082,12.630805003829213,6.178065992643825,0,1,0,0,1,0.406666666666667,0.906666666666667,0.906666666666667,0.406666666666667,0.0,0.7666666666666674,0.7666666666666674,0.0,0,
123,0.2480000000000002,0.3710843108166717,-0.015342939069943532,0.01668246753478902,-0.06894746466332459,10.18149059491679,5.199491501582377,0,1,0,0,1,0.4100000000000003,0.9100000000000004,0.9100000000000004,0.4100000000000003,0.0,0.7750000000000009,0.7750000000000009,0.0,0,
124,0.25000000000000017,0.37099687781411156,-0.013669871920133551,0.01673872872558916,-0.07008573649270201,15.18504687680723,9.295479384162318,0,1,0,0,1,0.41333333333333366,0.9133333333333337,0.9133333333333337,0.41333333333333366,0.0,0.7833333333333342,0.7833333333333342,0.0,0,
125,0.25200000000000017,0.3708214821666241,-0.01672079659384845,0.016474831000820207,-0.07121540446463302,12.121796049692803,7.594732450188964,0,1,0,0,1,0.41666666666666696,0.916666666666667,0.916666666666667,0.41666666666666696,0.0,0.7916666666666674,0.7916666666666674,0.0,0,
126,0.25400000000000017,0.3706323204090569,-0.015018556713073452,0.01663642481642413,-0.07236769987618347,14.226617400469033,9.679252544862583,0,1,0,0,1,0.4200000000000003,0.9200000000000004,0.9200000000000004,0.4200000000000003,0.0,0.8000000000000009,0.8000000000000009,0.0,0,
127,0.25600000000000017,0.37039145905407345,-0.01767262552152511,0.01638867369759648,-0.07349515443696071,15.5515869963173,11.251383604580546,0,1,0,0,1,0.4233333333333336,0.9233333333333336,0.9233333333333336,0.4233333333333336,0.0,0.8083333333333339,0.8083333333333339,0.0,0,
128,0.2580000000000002,0.3701063120737896,-0.01641295255952589,0.01696223136746464,-0.07462021761248348,11.263536484957134,4.708275047257517,0,1,0,0,1,0.42666666666666697,0.926666666666667,0.926666666666667,0.42666666666666697,0.0,0.8166666666666674,0.8166666666666674,0.0,0,
129,0.2600000000000002,0.369776920864412,-0.019034397891358596,0.016754944743521197,-0.07576806196242354,13.834615923143218,7.9341894122777905,0,1,0,0,1,0.4300000000000003,0.9300000000000004,0.9300000000000004,0.4300000000000003,0.0,0.825000000000001,0.825000000000001,0.0,0,
130,0.2620000000000002,0.3694308886088191,-0.017844223159805245,0.0169109306741078,-0.07693664563899248,12.64070866916754,7.755191910152357,0,1,0,0,1,0.4333333333333336,0.9333333333333336,0.9333333333333336,0.4333333333333336,0.0,0.8333333333333339,0.8333333333333339,0.0,0,
131,0.2640000000000002,0.3690110049024329,-0.020315199767887322,0.016566024031974172,-0.07801005790714438,14.480841734868228,10.334725213396208,0,1,0,0,1,0.436666666666667,0.936666666666667,0.936666666666667,0.436666666666667,0.0,0.8416666666666675,0.8416666666666675,0.0,0,
132,0.2660000000000002,0.36859211510466106,-0.01874465783439119,0.016753078842851047,-0.0791867224273519,16.05353577489143,12.031912316144474,0,1,0,0,1,0.44000000000000034,0.9400000000000004,0.9400000000000004,0.44000000000000034,0.0,0.850000000000001,0.850000000000001,0.0,0,
133,0.2680000000000002,0.36807935652961965,-0.021673610673196963,0.01683405587662423,-0.08024035449689865,10.608422776517537,5.2942398168116,0,1,0,0,1,0.44333333333333363,0.9433333333333336,0.9433333333333336,0.44333333333333363,0.0,0.858333333333334,0.858333333333334,0.0,0,
134,0.2700000000000002,0.3675742406573877,-0.0198671002258362,0.01665815171839255,-0.08128881720547618,12.848639925830135,7.513897876816598,0,1,0,0,1,0.446666666666667,0.946666666666667,0.946666666666667,0.446666666666667,0.0,0.8666666666666675,0.8666666666666675,0.0,0,
135,0.2720000000000002,0.3669850676539977,-0.023032299961424075,0.016622674283806285,-0.08249282785704903,13.171846841664104,8.894517131416427,0,1,0,0,1,0.45000000000000034,0.9500000000000004,0.9500000000000004,0.45000000000000034,0.0,0.875000000000001,0.875000000000001,0.0,0,
136,0.2740000000000002,0.3664030721180488,-0.021209196594007433,0.016559484326700964,-0.08356310033104135,16.267001925806206,11.983037088535035,0,1,0,0,1,0.45333333333333364,0.9533333333333336,0.9533333333333336,0.45333333333333364,0.0,0.883333333333334,0.883333333333334,0.0,0,
137,0.2760000000000002,0.3657524458783207,-0.02398040237320344,0.01653947438527415,-0.08477208591650069,17.004675986277014,13.261238997350343,0,1,0,0,1,0.456666666666667,0.956666666666667,0.956666666666667,0.456666666666667,0.0,0.8916666666666675,0.8916666666666675,0.0,0,
138,0.2780000000000002,0.365077577184809,-0.022619369696675145,0.016889624142139986,-0.08581974136888455,11.441522745807063,4.8762959758741005,0,1,0,0,1,0.46000000000000035,0.9600000000000004,0.9600000000000004,0.46000000000000035,0.0,0.900000000000001,0.900000000000001,0.0,0,
139,0.2800000000000002,0.36434051768422016,-0.025137692816353353,0.016497768895445557,-0.08689586024903265,13.555755218520028,9.03008830747692,0,1,0,0,1,0.46333333333333365,0.9633333333333336,0.9633333333333336,0.46333333333333365,0.0,0.908333333333334,0.908333333333334,0.0,0,
140,0.2820000000000002,0.3635889051685737,-0.023872924089509976,0.016695975929769295,-0.08808729391058417,14.75660769988772,10.508416228543949,0,1,0,0,1,0.466666666666667,0.966666666666667,0.966666666666667,0.466666666666667,0.0,0.9166666666666675,0.9166666666666675,0.0,0,
141,0.2840000000000002,0.36276395691946894,-0.02663271829252556,0.016685444722569994,-0.08913653069514994,12.707460067590448,7.226500149481232,0,1,0,0,1,0.47000000000000036,0.9700000000000004,0.9700000000000004,0.47000000000000036,0.0,0.925000000000001,0.925000000000001,0.0,0,
142,0.2860000000000002,0.3619174433649391,-0.02533283364957828,0.016947057520822744,-0.09035714688655748,10.201687013448682,4.62768821450234,0,1,0,0,1,0.47333333333333366,0.9733333333333336,0.9733333333333336,0.47333333333333366,0.0,0.933333333333334,0.933333333333334,0.0,0,
143,0.2880000000000002,0.36103830667516057,-0.028287431476113685,0.01677478297624188,-0.09153371964239682,18.862277374946352,12.276208358618645,0,1,0,0,1,0.476666666666667,0.976666666666667,0.976666666666667,0.476666666666667,0.0,0.9416666666666675,0.9416666666666675,0.0,0,
144,0.2900000000000002,0.3601147984515056,-0.02664231895327776,0.016863957702760425,-0.09254961304342181,11.439395270078956,4.86925975862773,0,1,0,0,1,0.48000000000000037,0.9800000000000004,0.9800000000000004,0.48000000000000037,0.0,0.9500000000000011,0.9500000000000011,0.0,0,
145,0.2920000000000002,0.3591051064966431,-0.02956639436576403,0.01677936367235281,-0.09377209482153419,9.998222262459466,5.283846662203454,0,1,0,0,1,0.48333333333333367,0.9833333333333336,0.9833333333333336,0.48333333333333367,0.0,0.958333333333334,0.958333333333334,0.0,0,
146,0.2940000000000002,0.35813505029366255,-0.02799050972707962,0.01691568542887952,-0.0948438920039698,18.209965291663046,10.615490172972656,0,1,0,0,1,0.486666666666667,0.986666666666667,0.986666666666667,0.486666666666667,0.0,0.9666666666666676,0.9666666666666676,0.0,0,
147,0.2960000000000002,0.35706503546718993,-0.030800350199610565,0.016795812529468025,-0.09595067083060804,10.87502184649269,5.2756352293152124,0,1,0,0,1,0.4900000000000004,0.9900000000000004,0.9900000000000004,0.4900000000000004,0.0,0.9750000000000011,0.9750000000000011,0.0,0,
148,0.2980000000000002,0.3559642757275075,-0.029336651281173565,0.017179910860120495,-0.09712290667177563,10.691154193512393,4.67622100615568,0,1,0,0,1,0.4933333333333337,0.9933333333333336,0.9933333333333336,0.4933333333333337,0.0,0.9833333333333341,0.9833333333333341,0.0,0,
149,0.3000000000000002,0.3548523092085039,-0.032151095428419096,0.017121411263486094,-0.09825596718329793,19.070798736154632,10.293398935026676,0,1,0,0,1,0.49666666666666703,0.996666666666667,0.996666666666667,0.49666666666666703,0.0,0.9916666666666676,0.9916666666666676,0.0,0,
150,0.3020000000000002,0.35369523973169864,-0.030670917605260407,0.017128382137137767,-0.09933551251925196,11.024136437353194,4.712360024470795,0,1,1,1,1,0.5000000000000003,4.440892098500626e-16,4.440892098500626e-16,0.5000000000000003,0.0,0.0,0.0,0.0,0,
151,0.3040000000000002,0.3524310765838835,-0.033490801651742855,0.0171885048363282,-0.10051087237434422,11.724920393198365,5.250890055287086,0,1,1,1,1,0.5033333333333337,0.0033333333333338544,0.0033333333333338544,0.5033333333333337,0.0,0.0,0.0,0.0,0,
152,0.3060000000000002,0.3512285082099236,-0.032022981899057355,0.017286437478018897,-0.10162289655693028,15.793710668295565,7.933878596172459,0,1,1,1,1,0.506666666666667,0.006666666666667043,0.006666666666667043,0.506666666666667,0.0,0.0,0.0,0.0,0,
153,0.3080000000000002,0.3499111445287866,-0.0348487391164615,0.017421222465789594,-0.10282215607783995,9.543046852563403,5.256634399488219,0,1,1,1,1,0.5100000000000003,0.010000000000000231,0.010000000000000231,0.5100000000000003,0.0,0.0,0.0,0.0,0,
154,0.3100000000000002,0.3486502443391461,-0.03338870987651634,0.01757816543329445,-0.10395133026226404,19.466811602671072,10.826218553544344,0,1,1,1,1,0.5133333333333338,0.013333333333333641,0.013333333333333641,0.5133333333333338,0.0,0.0,0.0,0.0,0,
155,0.3120000000000002,0.34727001257895074,-0.03623894262288499,0.017766586738273346,-0.10503777235099541,9.806916729902465,5.2636534814510005,0,1,1,1,1,0.516666666666667,0.01666666666666705,0.01666666666666705,0.516666666666667,0.0,0.0,0.0,0.0,0,
156,0.3140000000000002,0.34589460081317425,-0.03439360160842615,0.0176859700424829,-0.10612043954848915,11.10837980422966,4.662419659368734,0,1,1,1,1,0.5200000000000004,0.020000000000000462,0.020000000000000462,0.5200000000000004,0.0,0.0,0.0,0.0,0,
157,0.3160000000000002,0.3444341145596551,-0.03757264414991005,0.017767785130602426,-0.10734905405517656,13.075785471019485,6.957937278128174,0,1,1,1,1,0.5233333333333338,0.023333333333333872,0.023333333333333872,0.5233333333333338,0.0,0.0,0.0,0.0,0,
158,0.3180000000000002,0.3429826457891218,-0.035746683523301355,0.017785479677893595,-0.10845251931063685,12.794384607167293,6.570098437652128,0,1,1,1,1,0.5266666666666671,0.02666666666666706,0.02666666666666706,0.5266666666666671,0.0,0.0,0.0,0.0,0,
159,0.32000000000000023,0.3414629626092653,-0.03894297598441464,0.01794920521173196,-0.10969514312599485,13.679703341403933,9.3129211261314,0,1,1,1,1,0.5300000000000004,0.03000000000000025,0.03000000000000025,0.5300000000000004,0.0,0.0,0.0,0.0,0,
160,0.32200000000000023,0.3399483274790887,-0.037128161042649564,0.018031973243083463,-0.11080854920594656,14.021220960295832,8.736132133918709,0,1,1,1,1,0.5333333333333338,0.03333333333333366,0.03333333333333366,0.5333333333333338,0.0,0.0,0.0,0.0,0,
161,0.32400000000000023,0.3383622717778967,-0.04033445815151564,0.018250138815103734,-0.11205722239781295,14.589532390124315,10.703044299198227,0,1,1,1,1,0.5366666666666671,0.03666666666666707,0.03666666666666707,0.5366666666666671,0.0,0.0,0.0,0.0,0,
162,0.32600000000000023,0.336778839190574,-0.03852591471187209,0.01837640421688243,-0.1131743835749328,15.0155904427092,10.01501505635359,0,1,1,1,1,0.5400000000000004,0.04000000000000048,0.04000000000000048,0.5400000000000004,0.0,0.0,0.0,0.0,0,
163,0.32800000000000024,0.3351220049073285,-0.041737939344996686,0.018631120333009548,-0.11442465103676942,15.296402023005863,11.522544796948878,0,1,1,1,1,0.5433333333333338,0.04333333333333389,0.04333333333333389,0.5433333333333338,0.0,0.0,0.0,0.0,0,
164,0.33000000000000024,0.3334663093988706,-0.04028293248323076,0.019032150256955795,-0.11550206069753806,15.682976612475388,10.769752549233358,0,1,1,1,1,0.5466666666666671,0.04666666666666708,0.04666666666666708,0.5466666666666671,0.0,0.0,0.0,0.0,0,
165,0.33200000000000024,0.3317129839794554,-0.04335921529258095,0.019228732719527363,-0.11676313866592845,9.97849317570084,5.3443685372408405,0,1,1,1,1,0.5500000000000004,0.050000000000000266,0.050000000000000266,0.5500000000000004,0.0,0.0,0.0,0.0,0,
166,0.33400000000000024,0.3299915198455748,-0.04185316692842078,0.019618508066490542,-0.11784340531084765,17.158028910434062,11.191557612243258,0,1,1,1,1,0.5533333333333338,0.05333333333333368,0.05333333333333368,0.5533333333333338,0.0,0.0,0.0,0.0,0,
167,0.33600000000000024,0.3281662880506726,-0.044816820515902155,0.019789501721397255,-0.11910394317288041,9.894237219589858,5.336040869117173,0,1,1,1,1,0.5566666666666671,0.05666666666666709,0.05666666666666709,0.5566666666666671,0.0,0.0,0.0,0.0,0,
168,0.33800000000000024,0.326366649932394,-0.04322639043770655,0.020162065972958203,-0.12018515491312694,16.05374259822733,8.612335654471707,0,1,1,1,1,0.5600000000000004,0.0600000000000005,0.0600000000000005,0.5600000000000004,0.0,0.0,0.0,0.0,0,
169,0.34000000000000025,0.32446333593613425,-0.04619905397153668,0.02034122582800885,-0.12144931600705501,9.871709382824152,5.339071784389913,0,1,1,1,1,0.5633333333333338,0.06333333333333391,0.06333333333333391,0.5633333333333338,0.0,0.0,0.0,0.0,0,
170,0.34200000000000025,0.3225906985789865,-0.04462854871405549,0.020709455876764222,-0.12253721226832054,17.00524806275756,9.488763284144618,0,1,1,1,1,0.5666666666666671,0.0666666666666671,0.0666666666666671,0.5666666666666671,0.0,0.0,0.0,0.0,0,
171,0.34400000000000025,0.32061225404546556,-0.04761737197719579,0.020884297049523912,-0.12380625383228368,9.834120306663838,5.330480866906647,0,1,1,1,1,0.5700000000000004,0.07000000000000028,0.07000000000000028,0.5700000000000004,0.0,0.0,0.0,0.0,0,
172,0.34600000000000025,0.3186638020665937,-0.046047294192465824,0.021256910855887982,-0.12489293241466548,17.54824059419636,10.013888194255516,0,1,1,1,1,0.5733333333333338,0.0733333333333337,0.0733333333333337,0.5733333333333338,0.0,0.0,0.0,0.0,0,
173,0.34800000000000025,0.31660985320871415,-0.04903638166388937,0.02143520297512515,-0.12616023646291571,9.925135478522703,5.329657686912285,0,1,1,1,1,0.5766666666666671,0.0766666666666671,0.0766666666666671,0.5766666666666671,0.0,0.0,0.0,0.0,0,
174,0.35000000000000026,0.3145853410349322,-0.04746629148808307,0.02181006956269125,-0.12724483388877267,17.91812046690841,10.32891421251608,0,1,1,1,1,0.5800000000000004,0.08000000000000052,0.08000000000000052,0.5800000000000004,0.0,0.0,0.0,0.0,0,
175,0.35200000000000026,0.3124548349103965,-0.0504553884185716,0.021990052182867897,-0.12850985084018085,9.997812120762763,5.329652794691273,0,1,1,1,1,0.5833333333333338,0.08333333333333393,0.08333333333333393,0.5833333333333338,0.0,0.0,0.0,0.0,0,
176,0.35400000000000026,0.3103534334399778,-0.04891557310907126,0.022340944774614045,-0.12960420457801117,18.14108957271569,10.517757046634927,0,1,1,1,1,0.5866666666666671,0.08666666666666711,0.08666666666666711,0.5866666666666671,0.0,0.0,0.0,0.0,1,floor<->FL
177,0.35600000000000026,0.30814332028659625,-0.05189963251216528,0.022466701283519956,-0.13088305374813813,9.774759926251098,5.320267012891297,0,1,1,1,1,0.5900000000000004,0.0900000000000003,0.0900000000000003,0.5900000000000004,0.0,0.0,0.0,0.0,1,floor<->FL
178,0.35800000000000026,0.3059658810817313,-0.05028130145448426,0.022792231300525802,-0.1319726674569357,17.825249709437607,10.627931654902122,0,1,1,1,1,0.5933333333333338,0.09333333333333371,0.09333333333333371,0.5933333333333338,0.0,0.0,0.0,0.0,1,floor<->FL
179,0.36000000000000026,0.30368372101098573,-0.05310471175023496,0.022769074373472094,-0.1332699918592276,9.748080287048843,5.316964177059535,0,1,1,1,1,0.5966666666666671,0.09666666666666712,0.09666666666666712,0.5966666666666671,0.0,0.0,0.0,0.0,1,floor<->FL
180,0.36200000000000027,0.3014462911320819,-0.05158357074398649,0.022769947659833076,-0.13446901067548092,16.6552398814042,10.671376027600681,0,0,1,1,0,0.6000000000000004,0.10000000000000053,0.10000000000000053,0.6000000000000004,1.1102230246251565e-15,0.0,0.0,1.1102230246251565e-15,1,floor<->FL
181,0.36400000000000027,0.2990872894441389,-0.05430783878228931,0.022583018589198745,-0.13579866952235337,11.170921029719993,6.141882334322664,0,0,1,1,0,0.6033333333333338,0.10333333333333394,0.10333333333333394,0.6033333333333338,0.008333333333334636,0.0,0.0,0.008333333333334636,1,floor<->FL
182,0.36600000000000027,0.29681879063312777,-0.05258430284165288,0.022463043400318995,-0.13702210852030816,14.793032901927369,10.748151260457368,0,0,1,1,0,0.6066666666666671,0.10666666666666713,0.10666666666666713,0.6066666666666671,0.016666666666667884,0.0,0.0,0.016666666666667884,1,floor<->FL
183,0.36800000000000027,0.294437238683662,-0.05489917823320434,0.022106591984584475,-0.13834496340879954,12.997089124180103,7.976446559381354,0,0,1,1,0,0.6100000000000004,0.11000000000000032,0.11000000000000032,0.6100000000000004,0.025000000000001132,0.0,0.0,0.025000000000001132,1,floor<->FL
184,0.3700000000000003,0.29217193561471844,-0.05379693923720017,0.02129710137322117,-0.13966951677448727,14.2436210684075,10.79496897575182,0,0,1,1,0,0.6133333333333338,0.11333333333333373,0.11333333333333373,0.6133333333333338,0.03333333333333466,0.0,0.0,0.03333333333333466,2,floor<->FL|floor<->RL
185,0.3720000000000003,0.2899157854126459,-0.055652561943630274,0.020589724742546268,-0.14100033656927805,11.197385753770481,7.670040459920596,0,0,1,1,0,0.6166666666666671,0.11666666666666714,0.11666666666666714,0.6166666666666671,0.041666666666667906,0.0,0.0,0.041666666666667906,2,floor<->FL|floor<->RL
186,0.3740000000000003,0.28775409894425574,-0.052680565471892024,0.01895850508014398,-0.14226169184776458,15.930313721809313,10.873342074207148,0,0,1,1,0,0.6200000000000004,0.12000000000000055,0.12000000000000055,0.6200000000000004,0.050000000000001155,0.0,0.0,0.050000000000001155,4,floor<->FR|floor<->FL|floor<->RR|floor<->RL
187,0.3760000000000003,0.28560699086836566,-0.05302987633894267,0.017820199050100224,-0.14358978441195175,11.468441545428778,7.858229972793447,0,0,1,1,0,0.6233333333333338,0.12333333333333396,0.12333333333333396,0.6233333333333338,0.05833333333333468,0.0,0.0,0.05833333333333468,4,floor<->FR|floor<->FL|floor<->RR|floor<->RL
188,0.3780000000000003,0.2836314455163764,-0.04980734536346247,0.015518636810537197,-0.14446193239651553,14.653779103152095,10.13680282874429,0,0,1,1,0,0.6266666666666671,0.12666666666666715,0.12666666666666715,0.6266666666666671,0.06666666666666793,0.0,0.0,0.06666666666666793,4,floor<->FR|floor<->FL|floor<->RR|floor<->RL
189,0.3800000000000003,0.28171535221389815,-0.04860690130370818,0.013825352109584962,-0.1451236172258061,5.939958000709179,4.022030589126811,0,0,1,1,0,0.6300000000000004,0.13000000000000034,0.13000000000000034,0.6300000000000004,0.07500000000000118,0.0,0.0,0.07500000000000118,5,floor<->FR|floor<->geom_30|floor<->FL|floor<->RR|floor<->RL
190,0.3820000000000003,0.28004883715424755,-0.04301082871466817,0.011826644170601286,-0.14553866485191347,10.747497124346003,8.109041360544243,0,0,1,1,0,0.6333333333333339,0.13333333333333375,0.13333333333333375,0.6333333333333339,0.0833333333333347,0.0,0.0,0.0833333333333347,5,floor<->FR|floor<->geom_30|floor<->FL|floor<->RR|floor<->RL
191,0.3840000000000003,0.2784608100160978,-0.04175735402854245,0.010666969473244112,-0.14597921695077787,12.786232711131852,8.92152269018868,0,0,1,1,0,0.6366666666666672,0.13666666666666716,0.13666666666666716,0.6366666666666672,0.09166666666666795,0.0,0.0,0.09166666666666795,5,floor<->FR|floor<->geom_30|floor<->FL|floor<->RR|floor<->RL
192,0.3860000000000003,0.2772002630749504,-0.03462406226927145,0.009423439983992775,-0.14614364532576124,10.83200579078784,6.333920995033584,0,0,1,1,0,0.6400000000000005,0.14000000000000057,0.14000000000000057,0.6400000000000005,0.1000000000000012,0.0,0.0,0.1000000000000012,6,floor<->FR|floor<->geom_30|floor<->FL|floor<->RR|floor<->geom_54|floor<->RL
193,0.3880000000000003,0.276148673813702,-0.03219922746270898,0.009080936493245375,-0.14635478754702516,13.880100931746167,6.526375497571472,0,0,1,1,0,0.6433333333333339,0.14333333333333398,0.14333333333333398,0.6433333333333339,0.10833333333333472,0.0,0.0,0.10833333333333472,6,floor<->FR|floor<->geom_30|floor<->FL|floor<->RR|floor<->geom_54|floor<->RL
194,0.3900000000000003,0.275439205780905,-0.028279897988210023,0.008905575817526226,-0.14653009671914832,10.623925574658806,6.396733773909819,0,0,1,1,0,0.6466666666666672,0.14666666666666717,0.14666666666666717,0.6466666666666672,0.11666666666666797,0.0,0.0,0.11666666666666797,5,floor<->FR|floor<->FL|floor<->RR|floor<->geom_54|floor<->RL
195,0.3920000000000003,0.27501878521709705,-0.026441230248216693,0.00890564206705113,-0.14673595563611594,11.604210675847503,7.298527970271699,0,0,1,1,0,0.6500000000000005,0.15000000000000036,0.15000000000000036,0.6500000000000005,0.12500000000000122,0.0,0.0,0.12500000000000122,5,floor<->FR|floor<->FL|floor<->RR|floor<->geom_54|floor<->RL
196,0.3940000000000003,0.27488879740756766,-0.019411085101319885,0.008788088443946624,-0.14665588760658235,12.843866433997821,8.478382118341866,0,0,1,1,0,0.6533333333333339,0.15333333333333377,0.15333333333333377,0.6533333333333339,0.13333333333333475,0.0,0.0,0.13333333333333475,5,floor<->FR|floor<->FL|floor<->RR|floor<->geom_54|floor<->RL
197,0.3960000000000003,0.27498053391742777,-0.017510610159032075,0.009023813075568847,-0.14661807734013182,16.379539621773386,10.29718042806132,0,0,1,1,0,0.6566666666666672,0.15666666666666718,0.15666666666666718,0.6566666666666672,0.141666666666668,0.0,0.0,0.141666666666668,5,floor<->FR|floor<->FL|floor<->RR|floor<->geom_54|floor<->RL
198,0.3980000000000003,0.27532879155403944,-0.010972210429396247,0.008822404812229843,-0.14642646453976815,15.139456122109559,10.495863987708583,0,0,1,1,0,0.6600000000000005,0.1600000000000006,0.1600000000000006,0.6600000000000005,0.15000000000000124,0.0,0.0,0.15000000000000124,6,floor<->geom_19|floor<->FR|floor<->FL|floor<->RR|floor<->geom_54|floor<->RL
199,0.4000000000000003,0.2758240104826341,-0.00960940260988255,0.009187559104853865,-0.14634664156100136,19.497214500264793,12.47528725736893,0,0,1,1,0,0.6633333333333339,0.163333333333334,0.163333333333334,0.6633333333333339,0.15833333333333477,0.0,0.0,0.15833333333333477,6,floor<->geom_19|floor<->FR|floor<->FL|floor<->RR|floor<->geom_54|floor<->RL
200,0.4020000000000003,0.276573587590107,-0.003771616841735526,0.009364827862604156,-0.14612254415953185,16.8656000321124,12.438573242057757,0,0,1,1,0,0.6666666666666672,0.16666666666666718,0.16666666666666718,0.6666666666666672,0.16666666666666802,0.0,0.0,0.16666666666666802,6,floor<->geom_19|floor<->FR|floor<->FL|floor<->RR|floor<->geom_54|floor<->RL
201,0.4040000000000003,0.27752496437684004,-0.0032198036079948617,0.010058844495083635,-0.14566023845575662,19.274261906217525,13.789208315780328,0,0,1,1,0,0.6700000000000005,0.17000000000000037,0.17000000000000037,0.6700000000000005,0.17500000000000127,0.0,0.0,0.17500000000000127,5,floor<->FR|floor<->FL|floor<->RR|floor<->geom_54|floor<->RL
202,0.4060000000000003,0.2786149858881071,0.002329155803290975,0.009915952129891463,-0.14509258364546068,19.45057132631216,13.60337613143261,0,0,1,1,0,0.6733333333333339,0.17333333333333378,0.17333333333333378,0.6733333333333339,0.1833333333333348,0.0,0.0,0.1833333333333348,4,floor<->FR|floor<->FL|floor<->RR|floor<->RL
203,0.4080000000000003,0.2798161886250644,0.0028907995227862916,0.01001593497844316,-0.14464613427405573,19.95973163935337,14.355240012220715,0,0,1,1,0,0.6766666666666672,0.1766666666666672,0.1766666666666672,0.6766666666666672,0.19166666666666804,0.0,0.0,0.19166666666666804,4,floor<->FR|floor<->FL|floor<->RR|floor<->RL
204,0.4100000000000003,0.2812010123779012,0.0073707326803502515,0.009325425605842902,-0.14420271846083862,17.848213262465524,13.26352457565917,0,0,1,1,0,0.6800000000000005,0.1800000000000006,0.1800000000000006,0.6800000000000005,0.2000000000000013,0.0,0.0,0.2000000000000013,4,floor<->FR|floor<->FL|floor<->RR|floor<->RL
